~Version Information
VERS.                     2.0: CWLS log ASCII Standard Version 2.00
WRAP.                      NO: One line per depth step
~Well Information Block
#MNEM.UNIT                               Data Type  Information
#---------                               ---------  -----------
STRT.M                                       .0000:
STOP.M                                    632.0028:
STEP.M                                       .1524:
NULL.                 -999.25                     :
COMP.     DORAL RESOURCES NL                      :COMPANY            
WELL.     TUBRIDGI - 10                           :WELL               
FLD .                                             :FIELD              
CTRY.                                             :COUNTRY            
STAT.                                             :STATE              
LOC .                                             :LOCATION           
UWI .                                             :UNIQUE WELL ID     
SRVC.                                             :Service company    
DATE.                                             :LOG DATE           
~Curve Information
#MNEM    .UNIT           API CODE  Curve Description
#-------------           --------  -----------------
DEPT    .M                       :   1 DEPTH
GR      .GAPI                    :   2
CALS    .IN                      :   3
MSFL    .OHMM                    :   4
LLS     .OHMM                    :   5
LLD     .OHMM                    :   6
DTLN    .US/F                    :   7
DTLF    .US/F                    :   8
SP      .MV                      :   9
GR      .                        :  10
CALI    .                        :  11
RHOB    .                        :  12
TNPH    .                        :  13
PEF     .                        :  14
DRHO    .                        :  15
HGR     .                        :  16
HRHO    .                        :  17
HTNP    .                        :  18
HPEF    .                        :  19
HDRH    .                        :  20
ROP     .min/                    :  21
TG      .%                       :  22
GR      .                        :  23
NPHI    .                        :  24
~A
# ...
   499.262  95.894  12.984  1.2390  1.2320  1.3700  135.13  150.41 -26.180  96.763  12.945  2.2050   .4970  3.3180  -.0040  95.932  2.1850   .4920  3.3240  -.0120  1.9000   .2134 -999.25 -999.25
   499.415  99.311  12.978  1.2650  1.2200  1.3630  140.65  151.79 -24.469  97.569  12.945  2.1990   .4120  3.2050   .0000  94.862  2.2040   .4960  3.3550  -.0170  1.9000   .2152 -999.25 -999.25
   499.567  98.976  13.003  1.2140  1.1480  1.2730  147.25  141.34 -24.837  97.492  12.972  2.1590   .4340  2.8380  -.0070  96.162  2.1940   .4700  2.9200  -.0200  1.9000   .2170 -999.25 -999.25
   499.720  94.253  13.310  1.2300  1.1330  1.2460  153.35  138.83 -24.537  95.667  13.030  2.0690   .5180  2.5280  -.0050  99.058  2.1570   .4560  2.8170  -.0080  1.9000   .2189 -999.25 -999.25
   499.872  88.112  13.568   .5730  1.1700  1.2850  147.22  141.68 -24.967  95.537  13.335  2.0040   .6250  2.3870  -.0050  97.006  2.1120   .4770  2.5880   .0110  1.9000   .2187 -999.25 -999.25
   500.024  88.116  13.060   .2460  1.2600  1.3840  142.38  139.68 -24.641  93.181  13.234  1.9970   .5710  2.6030  -.0080  95.079  1.9850   .5350  2.1830   .0130  16.800   .2164 -999.25 -999.25
   500.177  89.446  12.977   .8380  1.3880  1.5380  149.98  138.69 -25.149  91.888  12.925  2.1260   .5260  3.8640   .0000  95.496  1.9540   .5440  2.7030   .0070  16.800   .2121 -999.25 -999.25
   500.329  91.482  13.120  1.4640  1.4150  1.5810  148.05  141.43 -25.193  91.149  12.937  2.3260   .4170  3.9100   .0270  89.652  2.2100   .5200  4.9450   .0080  16.800   .2076 -999.25 -999.25
   500.482  91.969  13.189  1.5140  1.3840  1.5090  148.21  144.37 -24.845  93.203  13.041  2.3760   .4120  3.3470   .0260  88.968  2.4400   .4930  5.0600   .0290  16.800   .2030 -999.25 -999.25
   500.634  94.205  13.216  1.1800  1.3190  1.4240  153.68  142.03 -24.824  95.705  13.082  2.2770   .4500  2.8430   .0110  96.687  2.4460   .4620  3.3850   .0440  61.000   .1982 -999.25 -999.25
   500.786  94.666  13.219  1.1930  1.2850  1.4160  151.21  144.57 -26.115  96.498  13.121  2.1820   .5550  2.7190   .0040  99.623  2.2600   .4420  2.6020   .0170  61.000   .1932 -999.25 -999.25
   500.939  95.577  13.219  1.2070  1.2960  1.4190  151.42  150.60 -24.669  98.397  13.208  2.1510   .5540  2.8570   .0010  99.583  2.1530   .4470  2.6050  -.0130  61.000   .1880 -999.25 -999.25
   501.091  94.961  13.233  1.2290  1.2880  1.4290  152.21  151.87 -24.971  103.49  13.163  2.1570   .4930  2.8960   .0030  98.657  2.1410   .4790  2.6690  -.0170  36.000   .1827 -999.25 -999.25
   501.244  98.522  13.248  1.2990  1.2860  1.4050  153.92  153.28 -25.143  109.06  13.128  2.1590   .5310  2.9900   .0050  102.64  2.1540   .4870  3.1350  -.0070  36.000   .1773 -999.25 -999.25
   501.396  99.557  13.250  1.2660  1.2510  1.3800  154.64  154.67 -24.396  105.57  13.210  2.1460   .4780  2.7660   .0030  101.68  2.1650   .4820  3.0480   .0060  36.000   .1702 -999.25 -999.25
   501.548  101.21  13.208  1.2600  1.2250  1.3650  155.15  154.62 -25.572  102.58  13.268  2.1220   .5160  2.7540   .0020  102.29  2.1450   .4820  2.7100   .0120  20.000   .1636 -999.25 -999.25
   501.701  99.499  13.196   .9610  1.2030  1.3360  154.11  150.92 -25.419  98.675  13.309  2.0990   .4820  2.5660   .0010  102.58  2.1260   .4830  2.6460   .0100  20.000   .1575 -999.25 -999.25
   501.853  96.972  13.188  1.2090  1.2720  1.3960  149.62  143.53 -25.077  101.28  13.341  2.0930   .5420  2.6700   .0040  101.83  2.1130   .4710  2.6450   .0000  20.000   .1531 -999.25 -999.25
   502.006  92.451  13.109   .9940  1.4600  1.6330  140.03  136.67 -24.832  98.008  13.337  2.0930   .4780  2.7690   .0060  100.11  2.0840   .4610  2.5970  -.0070  20.000   .1487 -999.25 -999.25
   502.158  84.001  12.914   .9830  1.7450  1.9690  128.33  127.44 -26.151  90.547  13.127  2.1630   .4680  4.0260   .0070  96.177  2.0640   .4470  2.6790  -.0010  38.800   .1443 -999.25 -999.25
   502.310  78.050  12.710  1.5050  1.8970  2.1600  123.88  127.23 -25.297  84.097  12.733  2.3030   .4620  5.0260   .0160  91.928  2.1770   .4300  3.6320   .0140  38.800   .1398 -999.25 -999.25
   502.463  78.670  12.768  4.0540  1.8960  2.1330  125.83  133.00 -27.716  86.819  12.718  2.4570   .4240  4.0610   .0310  83.203  2.4160   .3920  6.7730   .0310  38.800   .1353 -999.25 -999.25
   502.615  85.981  12.875  2.9110  1.6780  1.8770  140.65  139.04 -25.865  96.510  12.806  2.3980   .4390  3.1460   .0090  83.914  2.5690   .3890  6.4240   .0400  26.600   .1307 -999.25 -999.25
   502.768  96.045  12.912  1.6750  1.4120  1.5650  146.20  146.75 -25.792  104.04  12.827  2.2630   .4170  2.7050  -.0090  94.181  2.4240   .4020  3.6710   .0170  26.600   .1260 -999.25 -999.25
   502.920  102.33  12.914  1.4000  1.2910  1.4300  150.07  149.43 -26.091  112.38  12.799  2.1780   .4460  2.7040  -.0120  104.87  2.2190   .4370  2.6440  -.0100  26.600   .1213 -999.25 -999.25
   503.072  104.70  12.914  1.3880  1.2560  1.4030  147.75  147.90 -25.401  112.40  12.804  2.1590   .4350  2.6640  -.0130  109.14  2.1570   .4470  2.5640  -.0170  25.000   .1180 -999.25 -999.25
   503.225  101.08  12.914  1.4180  1.2960  1.4500  145.13  143.61 -24.129  111.60  12.797  2.1660   .4750  2.7330  -.0090  106.05  2.1540   .4470  2.6140  -.0130  25.000   .1160 -999.25 -999.25
   503.377  97.600  12.914  1.3780  1.4460  1.6120  139.28  134.95 -24.301  102.51  12.797  2.1870   .5200  2.9320  -.0050  108.01  2.1700   .4490  2.6400  -.0070  25.000   .1155 -999.25 -999.25
   503.530  87.333  12.951  1.3300  1.5250  1.7370  133.83  132.08 -24.133  92.974  12.797  2.2360   .5170  4.0770  -.0100  106.01  2.1860   .4390  2.8310  -.0030  34.000   .1150 -999.25 -999.25
   503.682  85.014  13.021  1.5520  1.5750  1.7860  132.16  134.80 -23.825  86.199  12.819  2.3290   .4800  4.1100  -.0060  92.793  2.2510   .4200  4.6570  -.0010  34.000   .1145 -999.25 -999.25
   503.834  86.625  13.129  2.8240  1.5710  1.7660  142.32  142.78 -24.189  89.916  13.001  2.3970   .4350  3.5800   .0050  82.453  2.3900   .4210  6.3990  -.0010  34.000   .1140 -999.25 -999.25
   503.987  94.073  13.193  1.5510  1.4320  1.5800  147.64  147.78 -24.249  101.14  13.167  2.3260   .4400  2.9720  -.0040  88.784  2.4270   .4520  4.4000  -.0070  34.000   .1134 -999.25 -999.25
   504.139  98.932  13.279  1.2680  1.2940  1.4310  149.65  148.84 -23.885  105.94  13.217  2.2230   .4570  2.8560  -.0090  99.736  2.3090   .5010  3.0310  -.0150  28.000   .1128 -999.25 -999.25
   504.292  99.551  13.358  1.2650  1.2750  1.4110  148.43  147.89 -23.982  101.67  13.364  2.1660   .4860  2.8420  -.0070  103.38  2.1910   .5110  2.7840  -.0220  28.000   .1120 -999.25 -999.25
   504.444  100.60  13.267  1.1510  1.2830  1.4440  146.63  145.84 -24.781  102.42  13.237  2.1590   .4810  2.8760  -.0070  101.73  2.1660   .5020  2.6440  -.0180  28.000   .1112 -999.25 -999.25
   504.596  95.888  13.219  1.4870  1.3280  1.4840  144.34  143.86 -23.813  101.27  13.188  2.1700   .4740  2.9000  -.0100  100.55  2.1690   .5190  2.7910  -.0120  32.400   .1103 -999.25 -999.25
   504.749  92.169  13.219  1.5710  1.3810  1.5530  145.88  141.52 -24.600  101.93  13.126  2.1880   .4420  2.9060  -.0070  102.28  2.1810   .5480  2.8970  -.0110  32.400   .1094 -999.25 -999.25
   504.901  93.551  13.250  1.5640  1.4120  1.5810  138.86  140.18 -24.253  97.783  13.086  2.1990   .4110  2.9820  -.0120  105.95  2.1990   .5430  2.9680  -.0080  32.400   .1082 -999.25 -999.25
   505.054  97.111  13.219  1.6460  1.4110  1.5880  141.79  141.30 -25.542  102.42  13.078  2.2190   .3850  2.9220  -.0040  103.94  2.2150   .5000  3.1150  -.0050  31.000   .1068 -999.25 -999.25
   505.206  100.25  13.250  1.6890  1.3070  1.4670  143.70  142.83 -25.156  102.31  13.078  2.2190   .4050  2.8260   .0030  103.04  2.2090   .4690  3.1210  -.0080  31.000   .1052 -999.25 -999.25
   505.358  98.747  13.291  1.6040  1.2950  1.4390  145.10  143.13 -25.313  100.98  13.080  2.1780   .4350  2.5060   .0120  100.85  2.1980   .4500  3.1350  -.0080  31.000   .1044 -999.25 -999.25
   505.511  97.875  13.753   .9180  1.2810  1.4350  145.67  141.68 -25.508  95.818  13.444  2.1240   .4920  2.5510   .0130  99.580  2.1550   .4350  2.8990   .0050  31.000   .1045 -999.25 -999.25
