~Version Information
VERS.                     2.0: CWLS log ASCII Standard Version 2.00
WRAP.                      NO: One line per depth step
~Well Information Block
#MNEM.UNIT                               Data Type  Information
#---------                               ---------  -----------
STRT.M                                       .0000:
STOP.M                                    632.0028:
STEP.M                                       .1524:
NULL.                 -999.25                     :
COMP.     DORAL RESOURCES NL                      :COMPANY            
WELL.     TUBRIDGI - 10                           :WELL               
FLD .                                             :FIELD              
CTRY.                                             :COUNTRY            
STAT.                                             :STATE              
LOC .                                             :LOCATION           
UWI .                                             :UNIQUE WELL ID     
SRVC.                                             :Service company    
DATE.                                             :LOG DATE           
~Curve Information
#MNEM    .UNIT           API CODE  Curve Description
#-------------           --------  -----------------
DEPT    .M                       :   1 DEPTH
GR      .GAPI                    :   2
CALS    .IN                      :   3
MSFL    .OHMM                    :   4
LLS     .OHMM                    :   5
LLD     .OHMM                    :   6
DTLN    .US/F                    :   7
DTLF    .US/F                    :   8
SP      .MV                      :   9
GR      .                        :  10
CALI    .                        :  11
RHOB    .                        :  12
TNPH    .                        :  13
PEF     .                        :  14
DRHO    .                        :  15
HGR     .                        :  16
HRHO    .                        :  17
HTNP    .                        :  18
HPEF    .                        :  19
HDRH    .                        :  20
ROP     .min/                    :  21
TG      .%                       :  22
GR      .                        :  23
NPHI    .                        :  24
~A
# ...
   441.655  83.866  12.926   .6600  1.1620  1.3260  144.60  151.19 -23.105  86.675  12.980  2.0390   .4560  2.9520   .0020 -999.25 -999.25 -999.25 -999.25 -999.25  1.7000   .3417 -999.25 -999.25
   441.808  83.644  12.948   .6910  1.1590  1.3290  146.84  151.75 -23.401  86.900  12.945  2.1030   .4440  3.1040  -.0050 -999.25 -999.25 -999.25 -999.25 -999.25  1.7000   .3498 -999.25 -999.25
   441.960  82.258  12.979   .6740  1.1430  1.3110  149.65  152.20 -22.713  88.576  13.007  2.1110   .4780  3.1190  -.0130 -999.25 -999.25 -999.25 -999.25 -999.25  1.7000   .3580 -999.25 -999.25
   442.112  82.588  13.124   .7500  1.1470  1.3210  150.91  150.50 -22.498  91.196  13.163  2.0940   .5180  3.1000  -.0160 -999.25 -999.25 -999.25 -999.25 -999.25  1.9000   .3661 -999.25 -999.25
   442.265  84.584  13.244   .8200  1.1440  1.3270  149.60  147.51 -22.469  94.208  13.217  2.0780   .5830  3.0350  -.0110 -999.25 -999.25 -999.25 -999.25 -999.25  1.9000   .3743 -999.25 -999.25
   442.417  87.660  13.097   .7560  1.1270  1.3140  148.76  145.49 -22.434  95.604  13.080  2.0740   .5260  3.0480  -.0090 -999.25 -999.25 -999.25 -999.25 -999.25  1.9000   .3824 -999.25 -999.25
   442.570  87.971  12.980   .7710  1.1330  1.3250  148.39  144.53 -22.651  95.533  12.945  2.0830   .4370  2.9720  -.0060 -999.25 -999.25 -999.25 -999.25 -999.25  1.9000   .3906 -999.25 -999.25
   442.722  86.601  12.997   .7660  1.1230  1.3140  147.86  147.65 -22.403  96.316  12.945  2.1150   .4020  2.9900  -.0020 -999.25 -999.25 -999.25 -999.25 -999.25  1.9000   .3987 -999.25 -999.25
   442.874  84.915  13.006   .7460  1.1080  1.3120  147.12  156.15 -21.862  96.136  12.936  2.1410   .4060  3.0230   .0000 -999.25 -999.25 -999.25 -999.25 -999.25  1.9000   .4069 -999.25 -999.25
   443.027  85.291  12.977   .7210  1.1240  1.3340  146.34  154.90 -21.520  95.032  12.878  2.1520   .4130  3.0510  -.0020 -999.25 -999.25 -999.25 -999.25 -999.25  1.4000   .4150 -999.25 -999.25
   443.179  86.674  12.944   .6120  1.0860  1.2920  146.62  142.94 -21.007  92.583  12.806  2.1500   .4050  3.0730   .0020 -999.25 -999.25 -999.25 -999.25 -999.25  1.4000   .4232 -999.25 -999.25
   443.332  88.072  12.914   .5640  1.0520  1.2520  146.46  136.52 -20.858  92.702  12.800  2.1480   .4020  3.0890   .0060 -999.25 -999.25 -999.25 -999.25 -999.25  1.4000   .4313 -999.25 -999.25
   443.484  90.224  12.894   .5720  1.0410  1.2430  145.24  131.51 -20.698  95.459  12.776  2.1540   .4130  3.1390   .0120 -999.25 -999.25 -999.25 -999.25 -999.25  1.4000   .4395 -999.25 -999.25
   443.636  90.944  12.885   .4900  1.0090  1.2030  143.43  131.18 -20.715  96.002  12.705  2.1620   .4350  3.0710   .0150 -999.25 -999.25 -999.25 -999.25 -999.25  1.4000   .4476 -999.25 -999.25
   443.789  91.447  12.828   .4750   .9870  1.1800  143.33  131.31 -20.449  93.678  12.664  2.1650   .4210  2.9980   .0170 -999.25 -999.25 -999.25 -999.25 -999.25  1.4000   .4558 -999.25 -999.25
   443.941  91.086  12.767   .4760   .9760  1.1760  143.12  134.30 -20.615  93.640  12.664  2.1710   .3800  3.0300   .0190 -999.25 -999.25 -999.25 -999.25 -999.25  1.4000   .4639 -999.25 -999.25
   444.094  90.954  12.761   .4360   .9570  1.1490  140.80  137.72 -20.754  95.245  12.664  2.1700   .3420  3.0460   .0150 -999.25 -999.25 -999.25 -999.25 -999.25  1.4000   .4721 -999.25 -999.25
   444.246  90.333  12.783   .4320   .9650  1.1580  139.40  139.02 -20.939  100.49  12.664  2.1610   .3530  3.0030   .0100 -999.25 -999.25 -999.25 -999.25 -999.25  1.4000   .4802 -999.25 -999.25
   444.398  91.261  12.846   .4340  1.0150  1.2210  140.48  139.94 -21.179  102.77  12.664  2.1550   .3780  2.9090   .0100 -999.25 -999.25 -999.25 -999.25 -999.25  1.4000   .4869 -999.25 -999.25
   444.551  92.937  13.002   .4350  1.0890  1.3020  140.33  139.96 -20.562  102.76  12.743  2.1470   .3930  2.8460   .0100 -999.25 -999.25 -999.25 -999.25 -999.25  1.4000   .4921 -999.25 -999.25
   444.703  94.097  13.147   .4890  1.1620  1.3890  140.99  140.06 -20.347  100.71  12.941  2.1450   .3950  2.7980   .0100 -999.25 -999.25 -999.25 -999.25 -999.25  1.4000   .4958 -999.25 -999.25
   444.856  93.922  13.175   .6230  1.2220  1.4520  141.65  139.17 -21.018  99.715  13.070  2.1530   .4000  2.8040   .0100 -999.25 -999.25 -999.25 -999.25 -999.25  1.4000   .4980 -999.25 -999.25
   445.008  92.250  13.219   .7180  1.2510  1.4710  141.43  134.61 -21.408  99.457  13.085  2.1510   .4140  2.8140   .0100 -999.25 -999.25 -999.25 -999.25 -999.25  1.4000   .4987 -999.25 -999.25
   445.160  90.009  13.240   .7240  1.2550  1.4730  141.65  128.46 -21.154  95.750  13.147  2.1370   .4140  2.8290   .0120 -999.25 -999.25 -999.25 -999.25 -999.25  3.2000   .4979 -999.25 -999.25
   445.313  89.615  13.219   .6700  1.2540  1.4760  142.71  123.44 -21.179  92.086  13.215  2.1180   .4210  2.8170   .0170 -999.25 -999.25 -999.25 -999.25 -999.25  3.2000   .4957 -999.25 -999.25
   445.465  90.853  13.320   .6940  1.2670  1.4900  142.46  119.22 -21.740  90.641  13.219  2.1100   .4350  2.8300   .0290 -999.25 -999.25 -999.25 -999.25 -999.25  3.2000   .4919 -999.25 -999.25
   445.618  92.974  13.481   .7450  1.2660  1.4870  142.40  109.74 -21.993  92.135  13.285  2.1100   .4420  2.8210   .0510 -999.25 -999.25 -999.25 -999.25 -999.25  3.2000   .4867 -999.25 -999.25
   445.770  93.938  13.513   .6200  1.2300  1.4430  120.90  86.249 -21.836  93.091  13.415  2.0860   .4390  2.7420   .0600 -999.25 -999.25 -999.25 -999.25 -999.25  3.2000   .4800 -999.25 -999.25
   445.922  93.580  13.574   .5390  1.2310  1.4330  95.852  68.199 -22.506  92.023  13.525  2.0290   .4210  2.6250   .0490 -999.25 -999.25 -999.25 -999.25 -999.25  3.2000   .4718 -999.25 -999.25
   446.075  92.377  13.544   .4420  1.2410  1.4370  94.503  60.239 -23.220  87.994  13.649  1.9850   .4430  2.5950   .0380 -999.25 -999.25 -999.25 -999.25 -999.25  3.2000   .4636 -999.25 -999.25
   446.227  90.108  13.399   .3950  1.2180  1.4050  85.062  43.508 -23.089  83.115  13.590  1.9870   .4430  2.6320   .0320 -999.25 -999.25 -999.25 -999.25 -999.25  3.2000   .4554 -999.25 -999.25
   446.380  88.503  13.444   .5710  1.2430  1.4240  76.549  33.523 -23.343  80.283  13.438  2.0090   .4420  2.6550   .0290 -999.25 -999.25 -999.25 -999.25 -999.25  3.2000   .4472 -999.25 -999.25
   446.532  84.899  13.419   .5790  1.3880  1.5840  103.08  46.130 -23.442  80.587  13.407  2.0320   .4470  2.6340   .0250 -999.25 -999.25 -999.25 -999.25 -999.25  3.2000   .4389 -999.25 -999.25
   446.684  76.878  13.200   .3970  1.7170  1.9780  132.78  80.989 -23.993  78.829  13.332  2.0620   .4450  2.7640   .0210 -999.25 -999.25 -999.25 -999.25 -999.25  3.2000   .4307 -999.25 -999.25
   446.837  67.281  12.922   .6350  2.2360  2.6200  131.15 -999.25 -24.430  71.250  13.117  2.1580   .3910  3.3970   .0170 -999.25 -999.25 -999.25 -999.25 -999.25  3.2000   .4225 -999.25 -999.25
   446.989  63.041  12.844  1.4800  2.4195  2.8365  132.83 -999.25 -24.085  66.712  13.010  2.2425   .3460  3.9855   .0150 -999.25 -999.25 -999.25 -999.25 -999.25  3.2000   .4143 -999.25 -999.25
   447.142  58.802  12.766  2.3250  2.6030  3.0530  134.51  118.08 -23.740  62.174  12.902  2.3270   .3010  4.5740   .0130 -999.25 -999.25 -999.25 -999.25 -999.25  5.5000   .4061 -999.25 -999.25
   447.294  56.881  12.936  16.692  2.4400  2.8080  142.82  126.58 -24.405  60.071  12.939  2.5230   .2700  4.7780   .0180 -999.25 -999.25 -999.25 -999.25 -999.25  5.5000   .3979 -999.25 -999.25
   447.446  62.792  13.041  16.636  1.9060  2.1400  144.62  130.50 -24.441  67.672  13.111  2.5940   .3230  4.1860   .0140 -999.25 -999.25 -999.25 -999.25 -999.25  5.5000   .3897 -999.25 -999.25
   447.599  71.896  12.856  2.6900  1.4290  1.5890  145.04  136.73 -24.254  79.044  13.062  2.4610   .4260  3.7390  -.0020 -999.25 -999.25 -999.25 -999.25 -999.25  5.5000   .3815 -999.25 -999.25
   447.751  78.844  12.767   .8290  1.2050  1.3440  148.13  144.07 -24.096  87.758  12.860  2.2740   .5010  3.3380  -.0090 -999.25 -999.25 -999.25 -999.25 -999.25  5.5000   .3733 -999.25 -999.25
   447.904  82.336  12.765   .6170  1.1410  1.2780  151.67  148.64 -23.595  93.455  12.789  2.1410   .5460  3.1010  -.0030 -999.25 -999.25 -999.25 -999.25 -999.25  5.5000   .3651 -999.25 -999.25
