~Version Information
VERS.                     2.0: CWLS log ASCII Standard Version 2.00
WRAP.                      NO: One line per depth step
~Well Information Block
#MNEM.UNIT                               Data Type  Information
#---------                               ---------  -----------
STRT.M                                       .0000:
STOP.M                                    632.0028:
STEP.M                                       .1524:
NULL.                 -999.25                     :
COMP.     DORAL RESOURCES NL                      :COMPANY            
WELL.     TUBRIDGI - 10                           :WELL               
FLD .                                             :FIELD              
CTRY.                                             :COUNTRY            
STAT.                                             :STATE              
LOC .                                             :LOCATION           
UWI .                                             :UNIQUE WELL ID     
SRVC.                                             :Service company    
DATE.                                             :LOG DATE           
~Curve Information
#MNEM    .UNIT           API CODE  Curve Description
#-------------           --------  -----------------
DEPT    .M                       :   1 DEPTH
GR      .GAPI                    :   2
CALS    .IN                      :   3
MSFL    .OHMM                    :   4
LLS     .OHMM                    :   5
LLD     .OHMM                    :   6
DTLN    .US/F                    :   7
DTLF    .US/F                    :   8
SP      .MV                      :   9
GR      .                        :  10
CALI    .                        :  11
RHOB    .                        :  12
TNPH    .                        :  13
PEF     .                        :  14
DRHO    .                        :  15
HGR     .                        :  16
HRHO    .                        :  17
HTNP    .                        :  18
HPEF    .                        :  19
HDRH    .                        :  20
ROP     .min/                    :  21
TG      .%                       :  22
GR      .                        :  23
NPHI    .                        :  24
~A
# ...
   198.425  58.378  12.467   .8800   .8960  1.2380 -999.25 -999.25 -18.756  67.575  12.523  1.7220   .5440  2.2860  -.0060 -999.25 -999.25 -999.25 -999.25 -999.25  1.0000   .4610 -999.25 -999.25
   198.577  59.250  12.453   .8900   .9000  1.2140 -999.25 -999.25 -19.170  63.600  12.523  1.7190   .5720  2.2250  -.0080 -999.25 -999.25 -999.25 -999.25 -999.25  1.0000   .4967 -999.25 -999.25
   198.730  59.689  12.453   .8790   .8930  1.2160 -999.25 -999.25 -18.940  60.047  12.523  1.7150   .6670  2.2060  -.0130 -999.25 -999.25 -999.25 -999.25 -999.25  1.0000   .5365 -999.25 -999.25
   198.882  58.968  12.453   .8760   .9040  1.2310 -999.25 -999.25 -19.181  57.116  12.523  1.7070   .6380  2.1600  -.0210 -999.25 -999.25 -999.25 -999.25 -999.25  1.0000   .5802 -999.25 -999.25
   199.034  57.075  12.453   .8680   .8960  1.2310 -999.25 -999.25 -19.035  54.151  12.522  1.6990   .5180  2.1970  -.0270 -999.25 -999.25 -999.25 -999.25 -999.25  1.0000   .6238 -999.25 -999.25
   199.187  56.914  12.452   .8470   .8970  1.2260 -999.25 -999.25 -19.217  53.386  12.510  1.7010   .5100  2.1720  -.0250 -999.25 -999.25 -999.25 -999.25 -999.25  1.0000   .6675 -999.25 -999.25
   199.339  56.766  12.444   .8380   .9030  1.2410 -999.25 -999.25 -19.397  53.315  12.523  1.7050   .5630  2.2020  -.0190 -999.25 -999.25 -999.25 -999.25 -999.25  1.0000   .7064 -999.25 -999.25
   199.492  56.984  12.435   .8390   .9010  1.2250 -999.25 -999.25 -18.638  55.081  12.523  1.7180   .6310  2.2200  -.0110 -999.25 -999.25 -999.25 -999.25 -999.25  1.0000   .7403 -999.25 -999.25
   199.644  57.515  12.424   .8470   .9020  1.2430 -999.25 -999.25 -19.585  54.610  12.523  1.7220   .6570  2.2110  -.0060 -999.25 -999.25 -999.25 -999.25 -999.25  1.0000   .7694 -999.25 -999.25
   199.796  56.464  12.438   .8530   .9040  1.2460 -999.25 -999.25 -19.705  57.476  12.523  1.7230   .5730  2.1710  -.0050 -999.25 -999.25 -999.25 -999.25 -999.25  1.0000   .7936 -999.25 -999.25
   199.949  56.525  12.435   .8390   .9000  1.2270 -999.25 -999.25 -18.514  59.167  12.523  1.7190   .5800  2.0840  -.0070 -999.25 -999.25 -999.25 -999.25 -999.25  1.0000   .8129 -999.25 -999.25
   200.101  55.905  12.422   .8900   .8960  1.2260 -999.25 -999.25 -19.246  61.020  12.523  1.7170   .5490  2.1100  -.0100 -999.25 -999.25 -999.25 -999.25 -999.25   .9000   .8274 -999.25 -999.25
   200.254  56.074  12.424   .9440   .8990  1.2380 -999.25 -999.25 -19.389  61.026  12.523  1.7140   .5560  2.1840  -.0160 -999.25 -999.25 -999.25 -999.25 -999.25   .9000   .8370 -999.25 -999.25
   200.406  58.002  12.435   .9710   .9000  1.2270 -999.25 -999.25 -19.992  61.952  12.523  1.7110   .5550  2.2200  -.0190 -999.25 -999.25 -999.25 -999.25 -999.25   .9000   .8417 -999.25 -999.25
   200.558  58.222  12.424   .9420   .8970  1.2230 -999.25 -999.25 -20.711  59.824  12.523  1.7060   .5680  2.2220  -.0230 -999.25 -999.25 -999.25 -999.25 -999.25   .9000   .8415 -999.25 -999.25
   200.711  59.805  12.435   .8680   .9040  1.2340 -999.25 -999.25 -19.556  60.449  12.523  1.7040   .6490  2.2100  -.0240 -999.25 -999.25 -999.25 -999.25 -999.25   .9000   .8365 -999.25 -999.25
   200.863  58.430  12.425   .8590   .9040  1.2540 -999.25 -999.25 -19.914  60.201  12.523  1.7020   .6380  2.2670  -.0250 -999.25 -999.25 -999.25 -999.25 -999.25   .9000   .8266 -999.25 -999.25
   201.016  60.891  12.438   .8720   .9090  1.2400 -999.25 -999.25 -19.329  60.658  12.523  1.7080   .6130  2.2890  -.0220 -999.25 -999.25 -999.25 -999.25 -999.25   .9000   .8167 -999.25 -999.25
   201.168  59.990  12.438   .8760   .9070  1.2500 -999.25 -999.25 -20.414  59.091  12.523  1.7100   .7080  2.3050  -.0220 -999.25 -999.25 -999.25 -999.25 -999.25   .8000   .8068 -999.25 -999.25
   201.320  61.778  12.435   .8720   .9060  1.2310 -999.25 -999.25 -20.783  60.235  12.523  1.7190   .7390  2.2410  -.0180 -999.25 -999.25 -999.25 -999.25 -999.25   .8000   .7969 -999.25 -999.25
   201.473  62.639  12.422   .8720   .9070  1.2440 -999.25 -999.25 -21.542  61.343  12.523  1.7210   .8790  2.1870  -.0150 -999.25 -999.25 -999.25 -999.25 -999.25   .8000   .7870 -999.25 -999.25
   201.625  64.601  12.422   .8800   .9080  1.2360 -999.25 -999.25 -21.496  63.613  12.523  1.7200   .8660  2.1330  -.0160 -999.25 -999.25 -999.25 -999.25 -999.25   .8000   .7771 -999.25 -999.25
   201.778  63.819  12.425   .8860   .9040  1.2430 -999.25 -999.25 -22.710  64.253  12.523  1.7200   .8310  2.1700  -.0180 -999.25 -999.25 -999.25 -999.25 -999.25   .8000   .7672 -999.25 -999.25
   201.930  60.827  12.434   .8470   .9080  1.2570 -999.25 -999.25 -20.875  63.471  12.525  1.7180   .7320  2.1820  -.0210 -999.25 -999.25 -999.25 -999.25 -999.25   .8000   .7573 -999.25 -999.25
   202.082  60.451  12.422   .8570   .9040  1.2420 -999.25 -999.25 -21.047  64.136  12.530  1.7150   .6340  2.1560  -.0230 -999.25 -999.25 -999.25 -999.25 -999.25  1.0000   .7474 -999.25 -999.25
   202.235  61.519  12.422   .8760   .9110  1.2340 -999.25 -999.25 -21.158  63.199  12.523  1.7160   .4820  2.1160  -.0260 -999.25 -999.25 -999.25 -999.25 -999.25  1.0000   .7375 -999.25 -999.25
   202.387  62.100  12.422   .8810   .9000  1.2450 -999.25 -999.25 -20.866  65.018  12.523  1.7190   .4560  2.1240  -.0220 -999.25 -999.25 -999.25 -999.25 -999.25  1.0000   .7266 -999.25 -999.25
   202.540  60.271  12.422   .8840   .8980  1.2290 -999.25 -999.25 -21.097  63.731  12.523  1.7210   .4670  2.1800  -.0200 -999.25 -999.25 -999.25 -999.25 -999.25  1.0000   .7146 -999.25 -999.25
   202.692  59.689  12.425   .8770   .9010  1.2390 -999.25 -999.25 -21.846  60.681  12.525  1.7180   .5350  2.1800  -.0160 -999.25 -999.25 -999.25 -999.25 -999.25  1.0000   .7016 -999.25 -999.25
   202.844  58.976  12.424   .8520   .8950  1.2310 -999.25 -999.25 -21.694  57.716  12.542  1.7110   .5890  2.1730  -.0160 -999.25 -999.25 -999.25 -999.25 -999.25  1.0000   .6875 -999.25 -999.25
   202.997  60.332  12.398   .8240   .8900  1.2330 -999.25 -999.25 -21.560  56.266  12.575  1.7050   .6280  2.1630  -.0140 -999.25 -999.25 -999.25 -999.25 -999.25  1.0000   .6724 -999.25 -999.25
   203.149  60.290  12.485   .7810   .8880  1.2240 -999.25 -999.25 -22.284  59.312  12.582  1.7040   .6530  2.2590  -.0140 -999.25 -999.25 -999.25 -999.25 -999.25  1.0000   .6563 -999.25 -999.25
   203.302  61.985  12.514   .7840   .8750  1.2220 -999.25 -999.25 -22.093  63.574  12.652  1.7190   .5790  2.3280  -.0100 -999.25 -999.25 -999.25 -999.25 -999.25  1.0000   .6392 -999.25 -999.25
   203.454  63.550  12.506   .8520   .8700  1.2090 -999.25 -999.25 -22.083  65.149  12.638  1.7370   .5130  2.3450  -.0080 -999.25 -999.25 -999.25 -999.25 -999.25  1.0000   .6210 -999.25 -999.25
   203.606  62.221  12.496   .8640   .8580  1.1980 -999.25 -999.25 -21.691  65.822  12.551  1.7450   .4930  2.2440  -.0060 -999.25 -999.25 -999.25 -999.25 -999.25  1.0000   .6017 -999.25 -999.25
   203.759  61.595  12.488   .8380   .8510  1.1800 -999.25 -999.25 -22.233  64.134  12.535  1.7420   .4830  2.2020  -.0070 -999.25 -999.25 -999.25 -999.25 -999.25  1.0000   .5815 -999.25 -999.25
   203.911  58.081  12.496   .8480   .8420  1.1870 -999.25 -999.25 -21.085  64.689  12.523  1.7340   .4970  2.2200  -.0080 -999.25 -999.25 -999.25 -999.25 -999.25  1.0000   .5602 -999.25 -999.25
   204.064  56.291  12.488   .8540   .8450  1.1970 -999.25 -999.25 -20.945  62.930  12.523  1.7220   .5090  2.1960  -.0090 -999.25 -999.25 -999.25 -999.25 -999.25   .9000   .5388 -999.25 -999.25
   204.216  54.226  12.500   .8330   .8400  1.1870 -999.25 -999.25 -19.616  59.186  12.523  1.7060   .5370  2.1450  -.0120 -999.25 -999.25 -999.25 -999.25 -999.25   .9000   .5175 -999.25 -999.25
   204.368  55.343  12.496   .8290   .8350  1.1920 -999.25 -999.25 -19.842  56.919  12.546  1.6920   .4890  2.1260  -.0150 -999.25 -999.25 -999.25 -999.25 -999.25   .9000   .5003 -999.25 -999.25
   204.521  56.114  12.484   .7950   .8360  1.1870 -999.25 -999.25 -19.358  57.298  12.593  1.6830   .4620  2.1400  -.0170 -999.25 -999.25 -999.25 -999.25 -999.25   .9000   .4870 -999.25 -999.25
   204.673  56.514  12.491   .7560   .8330  1.1980 -999.25 -999.25 -19.450  59.786  12.562  1.6760   .5140  2.1370  -.0170 -999.25 -999.25 -999.25 -999.25 -999.25   .9000   .4779 -999.25 -999.25
