~Version Information
VERS.                     2.0: CWLS log ASCII Standard Version 2.00
WRAP.                      NO: One line per depth step
~Well Information Block
#MNEM.UNIT                               Data Type  Information
#---------                               ---------  -----------
STRT.M                                       .0000:
STOP.M                                    632.0028:
STEP.M                                       .1524:
NULL.                 -999.25                     :
COMP.     DORAL RESOURCES NL                      :COMPANY            
WELL.     TUBRIDGI - 10                           :WELL               
FLD .                                             :FIELD              
CTRY.                                             :COUNTRY            
STAT.                                             :STATE              
LOC .                                             :LOCATION           
UWI .                                             :UNIQUE WELL ID     
SRVC.                                             :Service company    
DATE.                                             :LOG DATE           
~Curve Information
#MNEM    .UNIT           API CODE  Curve Description
#-------------           --------  -----------------
DEPT    .M                       :   1 DEPTH
GR      .GAPI                    :   2
CALS    .IN                      :   3
MSFL    .OHMM                    :   4
LLS     .OHMM                    :   5
LLD     .OHMM                    :   6
DTLN    .US/F                    :   7
DTLF    .US/F                    :   8
SP      .MV                      :   9
GR      .                        :  10
CALI    .                        :  11
RHOB    .                        :  12
TNPH    .                        :  13
PEF     .                        :  14
DRHO    .                        :  15
HGR     .                        :  16
HRHO    .                        :  17
HTNP    .                        :  18
HPEF    .                        :  19
HDRH    .                        :  20
ROP     .min/                    :  21
TG      .%                       :  22
GR      .                        :  23
NPHI    .                        :  24
~A
# ...
   224.028  65.993  12.583   .8320   .9350  1.2120 -999.25 -999.25 -25.070  66.944  12.660  1.7950   .5360  3.0360  -.0050 -999.25 -999.25 -999.25 -999.25 -999.25   .9000   .5583 -999.25 -999.25
   224.180  62.064  12.576   .5780   .9400  1.2280 -999.25 -999.25 -24.065  62.819  12.664  1.8600   .5020  3.6180  -.0070 -999.25 -999.25 -999.25 -999.25 -999.25   .9000   .5516 -999.25 -999.25
   224.333  61.928  12.576   .5180   .9220  1.2090 -999.25 -999.25 -23.737  62.432  12.664  1.9120   .5780  3.1340  -.0110 -999.25 -999.25 -999.25 -999.25 -999.25   .9000   .5449 -999.25 -999.25
   224.485  64.604  12.524   .8780   .9010  1.1610 -999.25 -999.25 -23.826  65.243  12.652  1.8840   .5410  2.5850  -.0160 -999.25 -999.25 -999.25 -999.25 -999.25   .9000   .5382 -999.25 -999.25
   224.638  67.456  12.508   .8860   .8590  1.0980 -999.25 -999.25 -23.551  68.436  12.600  1.8130   .6260  2.2200  -.0180 -999.25 -999.25 -999.25 -999.25 -999.25   .9000   .5315 -999.25 -999.25
   224.790  67.377  12.508   .8600   .8440  1.0880 -999.25 -999.25 -22.979  69.908  12.574  1.7500   .5830  2.1600  -.0190 -999.25 -999.25 -999.25 -999.25 -999.25   .9000   .5248 -999.25 -999.25
   224.942  65.662  12.508   .8520   .8420  1.0900 -999.25 -999.25 -22.622  68.698  12.601  1.7270   .5830  2.1630  -.0190 -999.25 -999.25 -999.25 -999.25 -999.25   .9000   .5181 -999.25 -999.25
   225.095  64.360  12.508   .8670   .8490  1.0810 -999.25 -999.25 -23.329  67.323  12.597  1.7210   .5380  2.1190  -.0220 -999.25 -999.25 -999.25 -999.25 -999.25   .5000   .5114 -999.25 -999.25
   225.247  64.026  12.508   .8560   .8470  1.0910 -999.25 -999.25 -22.748  67.261  12.588  1.7170   .4930  2.0520  -.0200 -999.25 -999.25 -999.25 -999.25 -999.25   .5000   .5047 -999.25 -999.25
   225.400  63.825  12.502   .8230   .8460  1.0820 -999.25 -999.25 -22.884  67.412  12.586  1.7170   .5050  1.9880  -.0190 -999.25 -999.25 -999.25 -999.25 -999.25   .5000   .4980 -999.25 -999.25
   225.552  64.459  12.500   .8010   .8510  1.0960 -999.25 -999.25 -23.119  63.848  12.598  1.7120   .4680  2.0010  -.0200 -999.25 -999.25 -999.25 -999.25 -999.25   .5000   .4913 -999.25 -999.25
   225.704  66.340  12.500   .8210   .8480  1.0920 -999.25 -999.25 -23.585  63.776  12.620  1.7180   .5120  2.0220  -.0150 -999.25 -999.25 -999.25 -999.25 -999.25   .5000   .4846 -999.25 -999.25
   225.857  66.446  12.456   .8530   .8510  1.0930 -999.25 -999.25 -23.485  64.400  12.631  1.7230   .4750  2.0550  -.0080 -999.25 -999.25 -999.25 -999.25 -999.25   .5000   .4778 -999.25 -999.25
   226.009  63.625  12.426   .8280   .8480  1.0830 -999.25 -999.25 -24.125  67.149  12.595  1.7260   .5450  2.0560  -.0070 -999.25 -999.25 -999.25 -999.25 -999.25   .5000   .4711 -999.25 -999.25
   226.162  60.646  12.422   .8060   .8520  1.0880 -999.25 -999.25 -24.166  65.293  12.612  1.7290   .5110  2.0320  -.0050 -999.25 -999.25 -999.25 -999.25 -999.25   .9000   .4644 -999.25 -999.25
   226.314  60.819  12.441   .7950   .8570  1.0910 -999.25 -999.25 -25.182  66.704  12.636  1.7370   .5920  2.0110  -.0020 -999.25 -999.25 -999.25 -999.25 -999.25   .9000   .4577 -999.25 -999.25
   226.466  61.666  12.445   .7880   .8560  1.0790 -999.25 -999.25 -25.484  66.918  12.660  1.7450   .5940  2.0450  -.0030 -999.25 -999.25 -999.25 -999.25 -999.25   .9000   .4510 -999.25 -999.25
   226.619  61.813  12.465   .8080   .8520  1.0800 -999.25 -999.25 -25.435  65.681  12.664  1.7450   .6040  2.1830  -.0060 -999.25 -999.25 -999.25 -999.25 -999.25   .9000   .4443 -999.25 -999.25
   226.771  60.691  12.469   .8050   .8540  1.0730 -999.25 -999.25 -24.965  61.342  12.664  1.7460   .5690  2.2250  -.0080 -999.25 -999.25 -999.25 -999.25 -999.25   .9000   .4376 -999.25 -999.25
   226.924  61.150  12.521   .7930   .8510  1.0730 -999.25 -999.25 -27.168  61.553  12.664  1.7380   .6020  2.2940  -.0150 -999.25 -999.25 -999.25 -999.25 -999.25   .9000   .4309 -999.25 -999.25
   227.076  62.940  12.538   .8190   .8490  1.0810 -999.25 -999.25 -28.584  63.251  12.664  1.7500   .6530  2.2840  -.0170 -999.25 -999.25 -999.25 -999.25 -999.25   .8000   .4242 -999.25 -999.25
   227.228  65.260  12.566   .8560   .8530  1.0720 -999.25 -999.25 -29.149  67.261  12.664  1.7610   .6220  2.3320  -.0180 -999.25 -999.25 -999.25 -999.25 -999.25   .8000   .4175 -999.25 -999.25
   227.381  67.910  12.577   .8990   .8450  1.0680 -999.25 -999.25 -27.731  70.329  12.737  1.7700   .6420  2.3350  -.0200 -999.25 -999.25 -999.25 -999.25 -999.25   .8000   .4125 -999.25 -999.25
   227.533  67.939  12.591   .9080   .8520  1.0630 -999.25 -999.25 -27.856  72.726  12.717  1.7750   .5070  2.3490  -.0210 -999.25 -999.25 -999.25 -999.25 -999.25   .8000   .4092 -999.25 -999.25
   227.686  70.235  12.594   .9190   .8460  1.0640 -999.25 -999.25 -28.244  74.350  12.691  1.7930   .5220  2.3730  -.0160 -999.25 -999.25 -999.25 -999.25 -999.25   .8000   .4075 -999.25 -999.25
   227.838  69.709  12.594   .9180   .8470  1.0690 -999.25 -999.25 -27.475  73.646  12.755  1.8100   .4700  2.3900  -.0110 -999.25 -999.25 -999.25 -999.25 -999.25   .8000   .4075 -999.25 -999.25
   227.990  71.295  12.580   .9040   .8520  1.0670 -999.25 -999.25 -27.628  73.500  12.752  1.8200   .4630  2.4330  -.0080 -999.25 -999.25 -999.25 -999.25 -999.25   .8000   .4092 -999.25 -999.25
   228.143  68.517  12.592   .9150   .8450  1.0760 -999.25 -999.25 -27.386  73.446  12.696  1.8210   .4480  2.4890  -.0050 -999.25 -999.25 -999.25 -999.25 -999.25  1.0000   .4126 -999.25 -999.25
   228.295  69.483  12.621   .9280   .8610  1.0850 -999.25 -999.25 -27.412  75.240  12.749  1.8200   .4910  2.4840   .0020 -999.25 -999.25 -999.25 -999.25 -999.25  1.0000   .4177 -999.25 -999.25
   228.448  67.822  12.625   .9230   .8620  1.0810 -999.25 -999.25 -26.997  76.872  12.737  1.8080   .5480  2.4120   .0020 -999.25 -999.25 -999.25 -999.25 -999.25  1.0000   .4245 -999.25 -999.25
   228.600  68.720  12.611   .9030   .8660  1.0830 -999.25 -999.25 -26.896  74.637  12.727  1.7950   .6680  2.3330   .0020 -999.25 -999.25 -999.25 -999.25 -999.25  1.0000   .4329 -999.25 -999.25
   228.752  66.993  12.630   .9210   .8590  1.0930 -999.25 -999.25 -26.088  70.658  12.761  1.7890   .6400  2.2640   .0020 -999.25 -999.25 -999.25 -999.25 -999.25  1.0000   .4430 -999.25 -999.25
   228.905  65.582  12.647   .8900   .8650  1.0890 -999.25 -999.25 -26.638  71.300  12.793  1.7750   .6500  2.1900   .0010 -999.25 -999.25 -999.25 -999.25 -999.25  1.0000   .4548 -999.25 -999.25
   229.057  65.940  12.655   .8980   .8650  1.0930 -999.25 -999.25 -25.951  72.275  12.797  1.7580   .6330  2.1430  -.0070 -999.25 -999.25 -999.25 -999.25 -999.25  1.0000   .4666 -999.25 -999.25
   229.210  68.188  12.677   .9000   .8720  1.0980 -999.25 -999.25 -25.803  75.124  12.797  1.7500   .6020  2.1440  -.0090 -999.25 -999.25 -999.25 -999.25 -999.25  1.0000   .4784 -999.25 -999.25
   229.362  71.030  12.687   .8840   .8750  1.0900 -999.25 -999.25 -25.388  73.184  12.797  1.7520   .6450  2.1740  -.0110 -999.25 -999.25 -999.25 -999.25 -999.25  1.0000   .4902 -999.25 -999.25
   229.514  70.294  12.716   .9050   .8750  1.1010 -999.25 -999.25 -26.858  73.220  12.797  1.7580   .6580  2.1440  -.0130 -999.25 -999.25 -999.25 -999.25 -999.25  1.0000   .5020 -999.25 -999.25
   229.667  68.994  12.712   .9010   .8770  1.1020 -999.25 -999.25 -25.097  70.294  12.811  1.7570   .6560  2.0930  -.0150 -999.25 -999.25 -999.25 -999.25 -999.25  1.0000   .5138 -999.25 -999.25
   229.819  67.391  12.690   .8940   .8760  1.1100 -999.25 -999.25 -26.476  66.803  12.862  1.7600   .5430  2.0970  -.0100 -999.25 -999.25 -999.25 -999.25 -999.25  1.0000   .5257 -999.25 -999.25
   229.972  65.989  12.695   .9010   .8730  1.0980 -999.25 -999.25 -26.539  64.895  12.853  1.7500   .5250  2.1260  -.0120 -999.25 -999.25 -999.25 -999.25 -999.25  1.0000   .5375 -999.25 -999.25
   230.124  63.802  12.717   .8690   .8710  1.0980 -999.25 -999.25 -27.222  66.477  12.902  1.7370   .5630  2.1760  -.0150 -999.25 -999.25 -999.25 -999.25 -999.25  1.0000   .5493 -999.25 -999.25
   230.276  63.741  12.748   .8670   .8690  1.0910 -999.25 -999.25 -26.587  71.251  12.942  1.7300   .6780  2.1630  -.0170 -999.25 -999.25 -999.25 -999.25 -999.25  1.0000   .5611 -999.25 -999.25
