~Version Information
VERS.                     2.0: CWLS log ASCII Standard Version 2.00
WRAP.                      NO: One line per depth step
~Well Information Block
#MNEM.UNIT                               Data Type  Information
#---------                               ---------  -----------
STRT.M                                       .0000:
STOP.M                                    632.0028:
STEP.M                                       .1524:
NULL.                 -999.25                     :
COMP.     DORAL RESOURCES NL                      :COMPANY            
WELL.     TUBRIDGI - 10                           :WELL               
FLD .                                             :FIELD              
CTRY.                                             :COUNTRY            
STAT.                                             :STATE              
LOC .                                             :LOCATION           
UWI .                                             :UNIQUE WELL ID     
SRVC.                                             :Service company    
DATE.                                             :LOG DATE           
~Curve Information
#MNEM    .UNIT           API CODE  Curve Description
#-------------           --------  -----------------
DEPT    .M                       :   1 DEPTH
GR      .GAPI                    :   2
CALS    .IN                      :   3
MSFL    .OHMM                    :   4
LLS     .OHMM                    :   5
LLD     .OHMM                    :   6
DTLN    .US/F                    :   7
DTLF    .US/F                    :   8
SP      .MV                      :   9
GR      .                        :  10
CALI    .                        :  11
RHOB    .                        :  12
TNPH    .                        :  13
PEF     .                        :  14
DRHO    .                        :  15
HGR     .                        :  16
HRHO    .                        :  17
HTNP    .                        :  18
HPEF    .                        :  19
HDRH    .                        :  20
ROP     .min/                    :  21
TG      .%                       :  22
GR      .                        :  23
NPHI    .                        :  24
~A
# ...
   320.040  50.957  12.469   .9600   .9260  1.0590  186.33  188.52 -25.953  53.266  12.520  1.8520   .5190  2.4790  -.0130 -999.25 -999.25 -999.25 -999.25 -999.25   .8000   .6712 -999.25 -999.25
   320.192  50.410  12.469   .8330   .8960  1.0190  186.12  191.59 -24.748  51.012  12.512  1.8040   .5380  2.4570  -.0100 -999.25 -999.25 -999.25 -999.25 -999.25   .8000   .6727 -999.25 -999.25
   320.345  50.574  12.465   .7640   .8820  1.0080  186.18  191.88 -24.899  49.835  12.523  1.7850   .6170  2.4790  -.0050 -999.25 -999.25 -999.25 -999.25 -999.25   .8000   .6741 -999.25 -999.25
   320.497  50.520  12.445   .7880   .8830  1.0080  186.25  191.33 -24.731  51.961  12.523  1.7970   .5860  2.5430   .0000 -999.25 -999.25 -999.25 -999.25 -999.25   .8000   .6756 -999.25 -999.25
   320.650  51.601  12.426   .8750   .8990  1.0290  186.93  188.50 -24.444  55.213  12.520  1.8210   .5490  2.6180  -.0020 -999.25 -999.25 -999.25 -999.25 -999.25   .8000   .6771 -999.25 -999.25
   320.802  52.074  12.438   .8700   .9160  1.0470  187.80  185.24 -24.339  56.569  12.508  1.8470   .4980  2.6270  -.0060 -999.25 -999.25 -999.25 -999.25 -999.25   .8000   .6786 -999.25 -999.25
   320.954  54.055  12.448   .8990   .9260  1.0580  188.19  184.63 -25.585  58.431  12.512  1.8740   .5150  2.5340  -.0140 -999.25 -999.25 -999.25 -999.25 -999.25   .8000   .6801 -999.25 -999.25
   321.107  53.534  12.491   .9820   .9470  1.0790  187.63  184.53 -26.912  58.624  12.523  1.9010   .5520  2.4750  -.0190 -999.25 -999.25 -999.25 -999.25 -999.25   .8000   .6816 -999.25 -999.25
   321.259  55.074  12.531   .9710   .9660  1.0960  187.62  184.55 -27.441  58.450  12.523  1.9270   .5770  2.5640  -.0250 -999.25 -999.25 -999.25 -999.25 -999.25   .8000   .6831 -999.25 -999.25
   321.412  54.768  12.523  1.0380   .9630  1.1100  187.10  184.57 -27.619  56.751  12.523  1.9570   .5570  2.7070  -.0260 -999.25 -999.25 -999.25 -999.25 -999.25   .8000   .6846 -999.25 -999.25
   321.564  55.536  12.500  1.1220   .9750  1.1220  186.00  184.47 -28.080  55.931  12.523  1.9850   .5710  2.7600  -.0240 -999.25 -999.25 -999.25 -999.25 -999.25   .8000   .6861 -999.25 -999.25
   321.716  53.557  12.500  1.1930   .9630  1.1220  184.47  183.85 -27.766  55.243  12.523  2.0000   .5590  2.6830  -.0180 -999.25 -999.25 -999.25 -999.25 -999.25   .8000   .6876 -999.25 -999.25
   321.869  52.187  12.500  1.2220   .9500  1.1050  182.15  181.44 -27.471  53.061  12.523  1.9830   .5450  2.5720  -.0150 -999.25 -999.25 -999.25 -999.25 -999.25   .8000   .6890 -999.25 -999.25
   322.021  51.009  12.484  1.1470   .9340  1.0830  180.48  179.49 -26.599  50.143  12.523  1.9380   .5990  2.4940  -.0140 -999.25 -999.25 -999.25 -999.25 -999.25   .8000   .6905 -999.25 -999.25
   322.174  50.713  12.443   .9620   .9110  1.0540  178.91  179.49 -25.560  48.761  12.523  1.8890   .5610  2.4050  -.0170 -999.25 -999.25 -999.25 -999.25 -999.25   .9000   .6920 -999.25 -999.25
   322.326  48.950  12.438   .8910   .9060  1.0370  178.47  179.93 -24.814  49.865  12.523  1.8580   .5480  2.3660  -.0150 -999.25 -999.25 -999.25 -999.25 -999.25   .9000   .6935 -999.25 -999.25
   322.478  46.856  12.438   .8670   .9070  1.0380  179.49  180.74 -24.313  50.830  12.523  1.8410   .4560  2.3640  -.0150 -999.25 -999.25 -999.25 -999.25 -999.25   .9000   .6950 -999.25 -999.25
   322.631  47.886  12.438   .8140   .8950  1.0380  180.73  181.92 -24.094  51.930  12.523  1.8280   .4530  2.3560  -.0150 -999.25 -999.25 -999.25 -999.25 -999.25   .9000   .6965 -999.25 -999.25
   322.783  49.036  12.438   .7980   .9070  1.0490  181.99  184.45 -24.550  52.833  12.523  1.8220   .4570  2.3970  -.0170 -999.25 -999.25 -999.25 -999.25 -999.25   .9000   .6980 -999.25 -999.25
   322.936  49.595  12.433   .8270   .9290  1.0610  183.63  188.64 -25.389  53.792  12.523  1.8340   .4850  2.4780  -.0150 -999.25 -999.25 -999.25 -999.25 -999.25   .9000   .6995 -999.25 -999.25
   323.088  50.131  12.429   .8800   .9340  1.0720  184.90  191.15 -25.485  53.301  12.523  1.8510   .5340  2.5950  -.0160 -999.25 -999.25 -999.25 -999.25 -999.25  1.0000   .7010 -999.25 -999.25
   323.240  51.575  12.448   .9480   .9510  1.0960  184.94  189.16 -26.545  52.748  12.523  1.8630   .5260  2.5870  -.0190 -999.25 -999.25 -999.25 -999.25 -999.25  1.0000   .7025 -999.25 -999.25
   323.393  53.519  12.458   .9160   .9900  1.1360  184.63  186.35 -27.077  53.766  12.523  1.8710   .5290  2.5840  -.0230 -999.25 -999.25 -999.25 -999.25 -999.25  1.0000   .7039 -999.25 -999.25
   323.545  53.707  12.469   .9230  1.0050  1.1610  184.24  181.58 -28.112  56.627  12.493  1.8970   .5250  2.5930  -.0220 -999.25 -999.25 -999.25 -999.25 -999.25  1.0000   .7054 -999.25 -999.25
   323.698  53.451  12.464  1.0970  1.0090  1.1690  183.66  177.62 -27.788  57.005  12.443  1.9270   .5460  2.6200  -.0190 -999.25 -999.25 -999.25 -999.25 -999.25  1.0000   .7069 -999.25 -999.25
   323.850  52.740  12.458  1.1980   .9930  1.1470  183.43  176.98 -28.149  57.173  12.487  1.9390   .5490  2.5530  -.0150 -999.25 -999.25 -999.25 -999.25 -999.25  1.0000   .7084 -999.25 -999.25
   324.002  52.492  12.463  1.0750   .9560  1.1070  181.30  177.47 -27.189  55.307  12.516  1.9240   .5280  2.4890  -.0110 -999.25 -999.25 -999.25 -999.25 -999.25  1.0000   .7099 -999.25 -999.25
   324.155  51.448  12.453   .9790   .9410  1.0870  181.07  178.32 -27.219  55.808  12.479  1.9050   .4510  2.5030  -.0100 -999.25 -999.25 -999.25 -999.25 -999.25  1.1000   .7114 -999.25 -999.25
   324.307  50.971  12.459   .9290   .9460  1.0880  181.54  177.81 -27.173  55.413  12.448  1.9030   .4240  2.5940  -.0100 -999.25 -999.25 -999.25 -999.25 -999.25  1.1000   .7129 -999.25 -999.25
   324.460  49.998  12.458   .9880   .9690  1.1250  181.45  175.21 -27.689  55.097  12.441  1.9130   .4200  2.6920  -.0090 -999.25 -999.25 -999.25 -999.25 -999.25  1.1000   .7144 -999.25 -999.25
   324.612  49.982  12.432  1.0480   .9980  1.1630  179.74  171.29 -28.172  53.439  12.388  1.9220   .4600  2.7040  -.0130 -999.25 -999.25 -999.25 -999.25 -999.25  1.1000   .7159 -999.25 -999.25
   324.764  51.048  12.422  1.0720  1.0180  1.1870  177.01  168.79 -28.932  51.374  12.383  1.9360   .4870  2.6410  -.0140 -999.25 -999.25 -999.25 -999.25 -999.25  1.1000   .7173 -999.25 -999.25
   324.917  53.820  12.422  1.1040  1.0310  1.2090  174.98  168.26 -28.510  52.066  12.383  1.9500   .4850  2.5880  -.0120 -999.25 -999.25 -999.25 -999.25 -999.25  1.1000   .7188 -999.25 -999.25
   325.069  56.280  12.442  1.1190  1.0410  1.2220  173.13  167.74 -29.009  52.810  12.383  1.9590   .4480  2.5880  -.0100 -999.25 -999.25 -999.25 -999.25 -999.25   .7000   .7203 -999.25 -999.25
   325.222  58.012  12.485  1.1490  1.0430  1.2290  171.06  167.82 -29.015  54.144  12.386  1.9570   .4610  2.5670  -.0130 -999.25 -999.25 -999.25 -999.25 -999.25   .7000   .7218 -999.25 -999.25
   325.374  58.727  12.500  1.1700  1.0400  1.2070  169.20  167.62 -29.146  53.750  12.414  1.9520   .5200  2.5420  -.0150 -999.25 -999.25 -999.25 -999.25 -999.25   .7000   .7233 -999.25 -999.25
   325.526  57.832  12.500  1.1450  1.0220  1.1880  167.97  167.65 -28.986  54.104  12.480  1.9500   .5700  2.5810  -.0170 -999.25 -999.25 -999.25 -999.25 -999.25   .7000   .7248 -999.25 -999.25
   325.679  56.233  12.500  1.0940  1.0030  1.1690  167.33  168.33 -28.116  55.248  12.506  1.9330   .5250  2.6230  -.0210 -999.25 -999.25 -999.25 -999.25 -999.25   .7000   .7263 -999.25 -999.25
   325.831  54.081  12.494  1.0440   .9880  1.1450  166.94  169.46 -27.371  56.434  12.495  1.9150   .5370  2.6610  -.0230 -999.25 -999.25 -999.25 -999.25 -999.25   .7000   .7278 -999.25 -999.25
   325.984  52.091  12.481  1.0410   .9820  1.1360  168.29  170.37 -26.717  57.009  12.523  1.8970   .5820  2.6210  -.0210 -999.25 -999.25 -999.25 -999.25 -999.25   .7000   .7293 -999.25 -999.25
   326.136  51.020  12.461  1.0400   .9680  1.1220  170.38  169.77 -27.513  57.932  12.523  1.8890   .5640  2.6170  -.0170 -999.25 -999.25 -999.25 -999.25 -999.25   .7000   .7308 -999.25 -999.25
   326.288  50.058  12.431  1.0130   .9410  1.0960  171.22  168.54 -27.342  57.726  12.523  1.8830   .5220  2.6020  -.0140 -999.25 -999.25 -999.25 -999.25 -999.25   .7000   .7322 -999.25 -999.25
