~Version Information
VERS.                     2.0: CWLS log ASCII Standard Version 2.00
WRAP.                      NO: One line per depth step
~Well Information Block
#MNEM.UNIT                               Data Type  Information
#---------                               ---------  -----------
STRT.M                                       .0000:
STOP.M                                    632.0028:
STEP.M                                       .1524:
NULL.                 -999.25                     :
COMP.     DORAL RESOURCES NL                      :COMPANY            
WELL.     TUBRIDGI - 10                           :WELL               
FLD .                                             :FIELD              
CTRY.                                             :COUNTRY            
STAT.                                             :STATE              
LOC .                                             :LOCATION           
UWI .                                             :UNIQUE WELL ID     
SRVC.                                             :Service company    
DATE.                                             :LOG DATE           
~Curve Information
#MNEM    .UNIT           API CODE  Curve Description
#-------------           --------  -----------------
DEPT    .M                       :   1 DEPTH
GR      .GAPI                    :   2
CALS    .IN                      :   3
MSFL    .OHMM                    :   4
LLS     .OHMM                    :   5
LLD     .OHMM                    :   6
DTLN    .US/F                    :   7
DTLF    .US/F                    :   8
SP      .MV                      :   9
GR      .                        :  10
CALI    .                        :  11
RHOB    .                        :  12
TNPH    .                        :  13
PEF     .                        :  14
DRHO    .                        :  15
HGR     .                        :  16
HRHO    .                        :  17
HTNP    .                        :  18
HPEF    .                        :  19
HDRH    .                        :  20
ROP     .min/                    :  21
TG      .%                       :  22
GR      .                        :  23
NPHI    .                        :  24
~A
# ...
   409.651  51.384  12.545   .4100   .8960  1.0690  156.48  154.46 -20.998  52.163  12.387  1.9230   .5170  2.1160  -.0150 -999.25 -999.25 -999.25 -999.25 -999.25  3.2000   .5244 -999.25 -999.25
   409.804  52.135  12.575   .4870   .9420  1.1250  154.90  153.27 -21.582  54.225  12.386  1.9300   .5130  2.1410  -.0130 -999.25 -999.25 -999.25 -999.25 -999.25  3.2000   .4257 -999.25 -999.25
   409.956  53.873  12.607   .5010  1.0030  1.1940  152.27  152.09 -21.729  59.899  12.383  1.9400   .4620  2.1740  -.0120 -999.25 -999.25 -999.25 -999.25 -999.25  3.2000   .3447 -999.25 -999.25
   410.108  56.585  12.638   .5980  1.0490  1.2370  150.56  151.69 -21.290  64.253  12.383  1.9460   .4300  2.1880  -.0100 -999.25 -999.25 -999.25 -999.25 -999.25  1.5000   .2813 -999.25 -999.25
   410.261  62.829  12.653   .8000  1.1140  1.3120  151.42  152.61 -21.094  66.492  12.383  1.9440   .4330  2.2330  -.0110 -999.25 -999.25 -999.25 -999.25 -999.25  1.5000   .2356 -999.25 -999.25
   410.413  66.985  12.665   .8690  1.1280  1.3360  153.80  154.88 -20.534  66.470  12.400  1.9400   .4430  2.2660  -.0140 -999.25 -999.25 -999.25 -999.25 -999.25  1.5000   .2075 -999.25 -999.25
   410.566  66.488  12.694   .9070  1.0840  1.2670  155.41  156.42 -20.930  66.579  12.449  1.9340   .5060  2.3060  -.0170 -999.25 -999.25 -999.25 -999.25 -999.25  1.5000   .1970 -999.25 -999.25
   410.718  61.652  12.729   .8450  1.0230  1.1930  155.40  154.71 -21.499  66.429  12.503  1.9330   .5750  2.3260  -.0200 -999.25 -999.25 -999.25 -999.25 -999.25  1.5000   .2042 -999.25 -999.25
   410.870  57.849  12.778   .6910   .9690  1.1310  154.13  150.53 -21.195  63.957  12.523  1.9410   .5750  2.3110  -.0190 -999.25 -999.25 -999.25 -999.25 -999.25  1.5000   .2291 -999.25 -999.25
   411.023  55.618  12.764   .5500   .9740  1.1430  149.26  147.33 -21.057  60.181  12.501  1.9530   .5200  2.3390  -.0170 -999.25 -999.25 -999.25 -999.25 -999.25  1.5000   .2539 -999.25 -999.25
   411.175  53.270  12.748   .5120  1.0240  1.2080  145.85  147.22 -20.841  56.780  12.480  1.9930   .5080  2.7890  -.0150 -999.25 -999.25 -999.25 -999.25 -999.25  1.0000   .2788 -999.25 -999.25
   411.328  51.350  12.726   .5060  1.0240  1.2050  147.70  149.66 -20.751  55.014  12.486  2.0810   .5120  3.2020  -.0050 -999.25 -999.25 -999.25 -999.25 -999.25  1.0000   .3036 -999.25 -999.25
   411.480  50.547  12.653   .7060   .9800  1.1480  151.90  154.03 -20.591  52.918  12.451  2.1860   .4980  3.0230   .0130 -999.25 -999.25 -999.25 -999.25 -999.25  1.0000   .3285 -999.25 -999.25
   411.632  51.345  12.585   .5780   .9490  1.0990  154.63  157.49 -20.760  54.180  12.403  2.1740   .4730  2.4960   .0110 -999.25 -999.25 -999.25 -999.25 -999.25  1.0000   .3533 -999.25 -999.25
   411.785  51.862  12.595   .3450   .8760  1.0080  155.79  158.88 -20.458  55.138  12.418  2.0660   .5420  2.1730  -.0010 -999.25 -999.25 -999.25 -999.25 -999.25  1.0000   .3782 -999.25 -999.25
   411.937  52.904  12.631   .3470   .8170   .9450  156.38  159.54 -20.920  56.321  12.489  1.9640   .5380  2.1170  -.0090 -999.25 -999.25 -999.25 -999.25 -999.25  1.0000   .4030 -999.25 -999.25
   412.090  53.726  12.678   .3930   .8030   .9320  158.13  159.54 -20.496  55.555  12.585  1.9110   .5190  2.1180  -.0140 -999.25 -999.25 -999.25 -999.25 -999.25  3.7000   .4279 -999.25 -999.25
   412.242  55.423  12.717   .3740   .8120   .9370  158.78  157.94 -20.422  54.957  12.625  1.8830   .4970  2.1120  -.0170 -999.25 -999.25 -999.25 -999.25 -999.25  3.7000   .4527 -999.25 -999.25
   412.394  56.049  12.707   .3460   .8370   .9640  157.04  155.33 -21.531  55.814  12.601  1.8730   .5240  2.1130  -.0150 -999.25 -999.25 -999.25 -999.25 -999.25  3.7000   .4776 -999.25 -999.25
   412.547  57.029  12.667   .3660   .8760  1.0060  154.75  153.30 -21.971  57.380  12.562  1.8880   .5130  2.1420  -.0090 -999.25 -999.25 -999.25 -999.25 -999.25  3.7000   .5024 -999.25 -999.25
   412.699  56.441  12.595   .5450   .9240  1.0680  153.53  152.89 -22.755  58.110  12.581  1.9190   .4680  2.1390  -.0010 -999.25 -999.25 -999.25 -999.25 -999.25  3.7000   .5273 -999.25 -999.25
   412.852  56.021  12.543   .5860   .9650  1.1080  153.98  153.85 -23.143  58.587  12.553  1.9320   .4490  2.0880   .0020 -999.25 -999.25 -999.25 -999.25 -999.25  3.7000   .5521 -999.25 -999.25
   413.004  55.851  12.531   .5240   .9660  1.0950  155.09  155.04 -24.144  58.437  12.465  1.9250   .4510  2.0330   .0020 -999.25 -999.25 -999.25 -999.25 -999.25  3.7000   .5770 -999.25 -999.25
   413.156  56.499  12.541   .5710   .9530  1.0870  156.57  155.75 -24.378  60.518  12.420  1.9170   .5060  2.0380  -.0020 -999.25 -999.25 -999.25 -999.25 -999.25  3.0000   .6018 -999.25 -999.25
   413.309  58.715  12.557   .6750   .9730  1.1120  157.39  155.53 -24.755  61.966  12.419  1.9190   .6020  2.0710  -.0050 -999.25 -999.25 -999.25 -999.25 -999.25  3.0000   .6267 -999.25 -999.25
   413.461  62.039  12.592   .7000   .9790  1.1310  156.86  155.35 -24.242  64.471  12.437  1.9250   .5950  2.1230  -.0050 -999.25 -999.25 -999.25 -999.25 -999.25  3.0000   .6515 -999.25 -999.25
   413.614  66.143  12.609   .6950   .9810  1.1280  156.69  156.35 -24.552  63.729  12.460  1.9270   .5110  2.1490  -.0070 -999.25 -999.25 -999.25 -999.25 -999.25  3.0000   .6764 -999.25 -999.25
   413.766  66.880  12.635   .8530  1.0050  1.1390  158.80  156.92 -24.334  63.883  12.489  1.9280   .4340  2.1400  -.0070 -999.25 -999.25 -999.25 -999.25 -999.25  3.0000   .7012 -999.25 -999.25
   413.918  66.031  12.669   .9140   .9970  1.1490  156.98  155.74 -25.390  62.067  12.515  1.9310   .4010  2.1090  -.0030 -999.25 -999.25 -999.25 -999.25 -999.25  3.0000   .7261 -999.25 -999.25
   414.071  63.729  12.680   .8620  1.0030  1.1540  154.03  152.35 -25.697  64.241  12.523  1.9350   .4030  2.1150  -.0010 -999.25 -999.25 -999.25 -999.25 -999.25  2.5000   .7509 -999.25 -999.25
   414.223  65.214  12.675   .8830  1.0550  1.1940  150.80  148.42 -26.141  67.070  12.523  1.9430   .3950  2.1650  -.0050 -999.25 -999.25 -999.25 -999.25 -999.25  2.5000   .7758 -999.25 -999.25
   414.376  69.084  12.636   .9290  1.1310  1.2830  147.65  148.06 -25.983  71.655  12.570  1.9590   .4040  2.2540  -.0090 -999.25 -999.25 -999.25 -999.25 -999.25  2.5000   .7973 -999.25 -999.25
   414.528  75.323  12.591  1.1910  1.1780  1.3500  147.83  150.96 -27.434  75.912  12.552  1.9840   .4190  2.3460  -.0120 -999.25 -999.25 -999.25 -999.25 -999.25  2.5000   .8154 -999.25 -999.25
   414.680  80.113  12.562  1.5590  1.1760  1.3530  152.62  154.80 -27.471  77.795  12.594  1.9990   .4300  2.4600  -.0170 -999.25 -999.25 -999.25 -999.25 -999.25  2.5000   .8302 -999.25 -999.25
   414.833  81.124  12.549  1.5420  1.1430  1.3050  154.77  155.87 -28.356  80.081  12.678  1.9980   .4540  2.5120  -.0190 -999.25 -999.25 -999.25 -999.25 -999.25  2.5000   .8416 -999.25 -999.25
   414.985  81.401  12.552  1.2150  1.1420  1.2960  152.43  153.46 -27.852  81.000  12.693  1.9830   .4850  2.5480  -.0150 -999.25 -999.25 -999.25 -999.25 -999.25  2.5000   .8497 -999.25 -999.25
   415.138  78.583  12.549  1.0450  1.1720  1.3310  149.32  150.30 -28.919  80.532  12.677  1.9820   .4900  2.5570  -.0100 -999.25 -999.25 -999.25 -999.25 -999.25  3.5000   .8544 -999.25 -999.25
   415.290  76.374  12.547  1.1790  1.1810  1.3500  147.44  148.63 -28.569  79.285  12.624  2.0040   .4540  2.5520  -.0070 -999.25 -999.25 -999.25 -999.25 -999.25  3.3333   .8558 -999.25 -999.25
   415.442  71.867  12.558  1.6750  1.1830  1.3430  147.55  149.68 -28.159  75.928  12.515  2.0300   .4300  2.5100  -.0010 -999.25 -999.25 -999.25 -999.25 -999.25  3.1667   .8539 -999.25 -999.25
   415.595  69.177  12.573  1.3700  1.1360  1.2910  150.99  152.29 -27.683  75.318  12.466  2.0290   .4380  2.4910   .0000 -999.25 -999.25 -999.25 -999.25 -999.25  3.0000   .8485 -999.25 -999.25
   415.747  67.854  12.578   .9470  1.0690  1.1990  154.49  154.56 -27.910  71.966  12.450  2.0020   .4380  2.4040  -.0030 -999.25 -999.25 -999.25 -999.25 -999.25  2.8333   .8398 -999.25 -999.25
   415.900  65.466  12.584   .8510  1.0300  1.1560  156.24  155.82 -27.868  70.200  12.451  1.9810   .4280  2.3250  -.0040 -999.25 -999.25 -999.25 -999.25 -999.25  2.6667   .8278 -999.25 -999.25
