~Version Information
VERS.                     2.0: CWLS log ASCII Standard Version 2.00
WRAP.                      NO: One line per depth step
~Well Information Block
#MNEM.UNIT                               Data Type  Information
#---------                               ---------  -----------
STRT.M                                       .0000:
STOP.M                                    632.0028:
STEP.M                                       .1524:
NULL.                 -999.25                     :
COMP.     DORAL RESOURCES NL                      :COMPANY            
WELL.     TUBRIDGI - 10                           :WELL               
FLD .                                             :FIELD              
CTRY.                                             :COUNTRY            
STAT.                                             :STATE              
LOC .                                             :LOCATION           
UWI .                                             :UNIQUE WELL ID     
SRVC.                                             :Service company    
DATE.                                             :LOG DATE           
~Curve Information
#MNEM    .UNIT           API CODE  Curve Description
#-------------           --------  -----------------
DEPT    .M                       :   1 DEPTH
GR      .GAPI                    :   2
CALS    .IN                      :   3
MSFL    .OHMM                    :   4
LLS     .OHMM                    :   5
LLD     .OHMM                    :   6
DTLN    .US/F                    :   7
DTLF    .US/F                    :   8
SP      .MV                      :   9
GR      .                        :  10
CALI    .                        :  11
RHOB    .                        :  12
TNPH    .                        :  13
PEF     .                        :  14
DRHO    .                        :  15
HGR     .                        :  16
HRHO    .                        :  17
HTNP    .                        :  18
HPEF    .                        :  19
HDRH    .                        :  20
ROP     .min/                    :  21
TG      .%                       :  22
GR      .                        :  23
NPHI    .                        :  24
~A
# ...
   345.643  41.412  12.623   .7040   .8590   .9730  165.34  165.35 -23.203  46.610  12.523  1.9680   .4710  2.4560  -.0300 -999.25 -999.25 -999.25 -999.25 -999.25  1.0000   .0688 -999.25 -999.25
   345.796  43.415  12.625   .6720   .8580   .9690  162.61  161.73 -23.680  47.794  12.523  1.8460   .4630  2.2180  -.0340 -999.25 -999.25 -999.25 -999.25 -999.25  1.0000   .0750 -999.25 -999.25
   345.948  48.186  12.625   .6630   .9340  1.0710  158.24  156.55 -24.171  48.019  12.523  1.8050   .4430  2.2610  -.0300 -999.25 -999.25 -999.25 -999.25 -999.25  1.0000   .0813 -999.25 -999.25
   346.100  50.895  12.611   .6520  1.0340  1.1800  155.08  153.26 -25.025  47.579  12.523  1.8280   .4420  2.3420  -.0310 -999.25 -999.25 -999.25 -999.25 -999.25  1.0000   .0875 -999.25 -999.25
   346.253  52.773  12.595  1.0500  1.1090  1.3010  154.35  154.52 -25.479  50.828  12.531  1.8840   .4260  2.3670  -.0250 -999.25 -999.25 -999.25 -999.25 -999.25  1.0000   .0938 -999.25 -999.25
   346.405  50.483  12.608  1.3600  1.0520  1.2680  157.22  160.98 -26.429  50.015  12.538  1.9420   .4180  2.3530  -.0200 -999.25 -999.25 -999.25 -999.25 -999.25  1.0000   .1000 -999.25 -999.25
   346.558  49.132  12.609  1.2940  1.0130  1.1820  163.10  166.59 -26.516  51.913  12.532  1.9560   .4360  2.2870  -.0190 -999.25 -999.25 -999.25 -999.25 -999.25  1.0000   .1063 -999.25 -999.25
   346.710  47.736  12.588  1.1050   .9570  1.1180  167.29  169.37 -26.300  50.539  12.567  1.9280   .4390  2.2520  -.0200 -999.25 -999.25 -999.25 -999.25 -999.25  1.0000   .1125 -999.25 -999.25
   346.862  47.018  12.586   .8820   .9260  1.0620  169.54  169.13 -25.992  50.666  12.527  1.8940   .4200  2.2070  -.0170 -999.25 -999.25 -999.25 -999.25 -999.25  1.0000   .1188 -999.25 -999.25
   347.015  47.201  12.579   .8030   .9230  1.0250  168.12  166.28 -27.275  49.352  12.523  1.8680   .4210  2.2290  -.0170 -999.25 -999.25 -999.25 -999.25 -999.25  1.0000   .1250 -999.25 -999.25
   347.167  46.636  12.564   .8860   .9090  1.0670  166.13  163.64 -26.559  49.687  12.458  1.8600   .4350  2.2430  -.0180 -999.25 -999.25 -999.25 -999.25 -999.25  1.0000   .1313 -999.25 -999.25
   347.320  47.999  12.563   .9090   .9670  1.1060  163.85  162.06 -27.788  50.714  12.417  1.8680   .5080  2.3050  -.0140 -999.25 -999.25 -999.25 -999.25 -999.25  1.0000   .1375 -999.25 -999.25
   347.472  49.505  12.563  1.0030   .9960  1.1600  161.35  160.93 -28.581  48.958  12.392  1.8820   .5310  2.3270  -.0130 -999.25 -999.25 -999.25 -999.25 -999.25  1.0000   .1438 -999.25 -999.25
   347.624  50.421  12.563  1.1220  1.0300  1.1770  160.16  160.55 -29.511  50.704  12.383  1.8980   .6180  2.3650  -.0140 -999.25 -999.25 -999.25 -999.25 -999.25  1.0000   .1500 -999.25 -999.25
   347.777  47.563  12.555  1.1890  1.0290  1.1820  161.05  161.07 -28.258  52.028  12.383  1.9140   .5360  2.3670  -.0120 -999.25 -999.25 -999.25 -999.25 -999.25  1.0000   .1563 -999.25 -999.25
   347.929  45.560  12.547  1.1780  1.0260  1.1770  162.05  162.18 -29.632  54.297  12.383  1.9190   .5080  2.3450  -.0140 -999.25 -999.25 -999.25 -999.25 -999.25  1.0000   .1625 -999.25 -999.25
   348.082  44.990  12.562  1.1220   .9930  1.1520  162.58  163.67 -29.120  53.420  12.383  1.9180   .4600  2.3870  -.0160 -999.25 -999.25 -999.25 -999.25 -999.25  1.0000   .1688 -999.25 -999.25
   348.234  48.811  12.563  1.1340  1.0030  1.1520  160.20  165.27 -30.640  51.184  12.420  1.9190   .4870  2.3770  -.0150 -999.25 -999.25 -999.25 -999.25 -999.25  1.0000   .1750 -999.25 -999.25
   348.386  48.306  12.563  1.1450   .9900  1.1230  162.70  166.81 -30.326  54.711  12.392  1.9060   .4810  2.4490  -.0190 -999.25 -999.25 -999.25 -999.25 -999.25  1.0000   .1812 -999.25 -999.25
   348.539  48.342  12.563  1.1110   .9600  1.1080  167.06  167.42 -29.737  55.389  12.421  1.8920   .5340  2.3830  -.0250 -999.25 -999.25 -999.25 -999.25 -999.25  1.0000   .1875 -999.25 -999.25
   348.691  46.976  12.563  1.0820   .9660  1.0730  167.78  168.28 -30.357  55.163  12.399  1.8840   .5350  2.3620  -.0240 -999.25 -999.25 -999.25 -999.25 -999.25  1.0000   .1937 -999.25 -999.25
   348.844  48.524  12.563  1.0280   .9320  1.0790  169.95  168.17 -29.582  51.830  12.383  1.8790   .4940  2.2850  -.0240 -999.25 -999.25 -999.25 -999.25 -999.25  1.0000   .2000 -999.25 -999.25
   348.996  48.808  12.563  1.0220   .9310  1.0810  170.00  167.45 -30.742  50.341  12.383  1.8720   .4270  2.3210  -.0250 -999.25 -999.25 -999.25 -999.25 -999.25  1.0000   .2062 -999.25 -999.25
   349.148  49.674  12.578  1.0300   .9440  1.0760  169.02  166.15 -29.674  51.235  12.391  1.8710   .4190  2.3400  -.0210 -999.25 -999.25 -999.25 -999.25 -999.25  1.2000   .2125 -999.25 -999.25
   349.301  48.421  12.563  1.0200   .9860  1.0860  168.90  165.61 -29.486  53.566  12.391  1.8790   .4520  2.4440  -.0180 -999.25 -999.25 -999.25 -999.25 -999.25  1.2000   .2187 -999.25 -999.25
   349.453  50.019  12.563  1.1670   .9520  1.1080  168.70  165.60 -30.198  57.004  12.414  1.8930   .4630  2.4490  -.0160 -999.25 -999.25 -999.25 -999.25 -999.25  1.2000   .2250 -999.25 -999.25
   349.606  52.055  12.563  1.2180   .9600  1.1050  167.21  164.54 -30.203  56.564  12.414  1.8990   .5080  2.3870  -.0160 -999.25 -999.25 -999.25 -999.25 -999.25  1.2000   .2312 -999.25 -999.25
   349.758  53.469  12.578  1.1220   .9740  1.1100  166.90  163.80 -30.687  56.562  12.398  1.8940   .5570  2.3220  -.0160 -999.25 -999.25 -999.25 -999.25 -999.25  1.2000   .2375 -999.25 -999.25
   349.910  54.341  12.563   .9730   .9620  1.1270  167.80  164.10 -30.210  56.346  12.414  1.8920   .6610  2.3400  -.0130 -999.25 -999.25 -999.25 -999.25 -999.25  1.2000   .2437 -999.25 -999.25
   350.063  53.656  12.586  1.1000   .9740  1.1190  167.98  165.23 -31.914  56.794  12.383  1.9150   .5950  2.4570  -.0090 -999.25 -999.25 -999.25 -999.25 -999.25  1.0000   .2500 -999.25 -999.25
   350.215  53.639  12.578  1.2640  1.0130  1.1570  165.40  164.94 -30.927  54.331  12.391  1.9320   .5380  2.4210  -.0050 -999.25 -999.25 -999.25 -999.25 -999.25  1.0000   .2562 -999.25 -999.25
   350.368  52.176  12.579  1.1060  1.0120  1.1470  165.71  165.72 -31.330  47.994  12.383  1.9380   .5570  2.3870  -.0020 -999.25 -999.25 -999.25 -999.25 -999.25  1.0000   .2625 -999.25 -999.25
   350.520  51.492  12.609  1.0480  1.0090  1.1410  166.65  166.91 -31.417  45.647  12.390  1.9360   .5470  2.4090   .0010 -999.25 -999.25 -999.25 -999.25 -999.25  1.0000   .2687 -999.25 -999.25
   350.672  52.649  12.610  1.2440  1.0070  1.1510  168.95  168.89 -31.190  46.736  12.384  1.9430   .4820  2.4630  -.0020 -999.25 -999.25 -999.25 -999.25 -999.25  1.0000   .2750 -999.25 -999.25
   350.825  53.600  12.658  1.2620   .9860  1.1340  171.04  171.34 -31.889  47.505  12.425  1.9460   .4950  2.4490  -.0040 -999.25 -999.25 -999.25 -999.25 -999.25  1.0000   .2812 -999.25 -999.25
   350.977  52.683  12.728  1.1100   .9450  1.0730  172.37  172.63 -30.736  49.884  12.523  1.9230   .4810  2.3780  -.0080 -999.25 -999.25 -999.25 -999.25 -999.25  1.0000   .2875 -999.25 -999.25
   351.130  51.554  12.757  1.0430   .9250  1.0570  168.40  171.56 -31.199  50.174  12.526  1.8990   .4930  2.3520  -.0110 -999.25 -999.25 -999.25 -999.25 -999.25  1.0000   .2937 -999.25 -999.25
   351.282  50.496  12.726  1.0240   .9100  1.0760  168.28  168.79 -29.404  50.723  12.584  1.8870   .4580  2.4150  -.0170 -999.25 -999.25 -999.25 -999.25 -999.25  1.0000   .3000 -999.25 -999.25
   351.434  51.141  12.703   .9640   .9220  1.0790  167.74  165.96 -30.088  52.363  12.534  1.8980   .5110  2.4250  -.0130 -999.25 -999.25 -999.25 -999.25 -999.25  1.0000   .3062 -999.25 -999.25
   351.587  50.796  12.694  1.0010   .9270  1.0770  168.63  166.58 -29.662  52.678  12.583  1.9090   .5430  2.4150  -.0100 -999.25 -999.25 -999.25 -999.25 -999.25  1.0000   .3125 -999.25 -999.25
   351.739  50.338  12.671  1.1170   .9590  1.0750  169.31  166.28 -30.365  50.469  12.523  1.9120   .5880  2.3470  -.0100 -999.25 -999.25 -999.25 -999.25 -999.25  1.0000   .3187 -999.25 -999.25
   351.892  47.887  12.656  1.1360   .9440  1.0600  169.48  166.50 -29.624  48.091  12.523  1.9130   .6830  2.2910  -.0110 -999.25 -999.25 -999.25 -999.25 -999.25  1.0000   .3250 -999.25 -999.25
