~Version Information
VERS.                     2.0: CWLS log ASCII Standard Version 2.00
WRAP.                      NO: One line per depth step
~Well Information Block
#MNEM.UNIT                               Data Type  Information
#---------                               ---------  -----------
STRT.M                                       .0000:
STOP.M                                    632.0028:
STEP.M                                       .1524:
NULL.                 -999.25                     :
COMP.     DORAL RESOURCES NL                      :COMPANY            
WELL.     TUBRIDGI - 10                           :WELL               
FLD .                                             :FIELD              
CTRY.                                             :COUNTRY            
STAT.                                             :STATE              
LOC .                                             :LOCATION           
UWI .                                             :UNIQUE WELL ID     
SRVC.                                             :Service company    
DATE.                                             :LOG DATE           
~Curve Information
#MNEM    .UNIT           API CODE  Curve Description
#-------------           --------  -----------------
DEPT    .M                       :   1 DEPTH
GR      .GAPI                    :   2
CALS    .IN                      :   3
MSFL    .OHMM                    :   4
LLS     .OHMM                    :   5
LLD     .OHMM                    :   6
DTLN    .US/F                    :   7
DTLF    .US/F                    :   8
SP      .MV                      :   9
GR      .                        :  10
CALI    .                        :  11
RHOB    .                        :  12
TNPH    .                        :  13
PEF     .                        :  14
DRHO    .                        :  15
HGR     .                        :  16
HRHO    .                        :  17
HTNP    .                        :  18
HPEF    .                        :  19
HDRH    .                        :  20
ROP     .min/                    :  21
TG      .%                       :  22
GR      .                        :  23
NPHI    .                        :  24
~A
# ...
   288.036  67.694  12.482   .9560   .9450  1.0670  219.51  170.01 -30.535  70.138  12.523  1.9050   .6100  2.6260  -.0160 -999.25 -999.25 -999.25 -999.25 -999.25   .7000   .7461 -999.25 -999.25
   288.188  67.359  12.493   .9750   .9390  1.0640  220.93  169.79 -30.123  69.468  12.523  1.8980   .6200  2.5820  -.0150 -999.25 -999.25 -999.25 -999.25 -999.25   .7000   .7437 -999.25 -999.25
   288.341  66.513  12.484   .9530   .9320  1.0600  220.93  169.70 -30.332  68.565  12.523  1.8890   .6320  2.5790  -.0150 -999.25 -999.25 -999.25 -999.25 -999.25   .7000   .7413 -999.25 -999.25
   288.493  65.075  12.481   .9160   .9290  1.0490  220.96  169.98 -29.644  66.482  12.523  1.8840   .5610  2.5740  -.0140 -999.25 -999.25 -999.25 -999.25 -999.25   .7000   .7389 -999.25 -999.25
   288.646  64.446  12.480   .9260   .9320  1.0450  220.44  168.13 -29.321  64.642  12.523  1.8780   .5180  2.5110  -.0120 -999.25 -999.25 -999.25 -999.25 -999.25   .7000   .7365 -999.25 -999.25
   288.798  63.441  12.484   .9230   .9300  1.0540  212.76  167.02 -29.500  64.764  12.534  1.8720   .4680  2.4560  -.0120 -999.25 -999.25 -999.25 -999.25 -999.25   .7000   .7342 -999.25 -999.25
   288.950  62.601  12.481   .9250   .9320  1.0620  204.24  168.30 -30.163  66.612  12.540  1.8740   .4990  2.4370  -.0120 -999.25 -999.25 -999.25 -999.25 -999.25   .7000   .7318 -999.25 -999.25
   289.103  63.521  12.480   .9460   .9360  1.0680  203.86  168.25 -30.311  69.503  12.573  1.8860   .5780  2.4880  -.0110 -999.25 -999.25 -999.25 -999.25 -999.25   .8000   .7294 -999.25 -999.25
   289.255  63.993  12.484   .9930   .9480  1.0810  202.72  166.92 -29.522  71.028  12.590  1.8990   .6190  2.5360  -.0120 -999.25 -999.25 -999.25 -999.25 -999.25   .8000   .7270 -999.25 -999.25
   289.408  64.958  12.484  1.0210   .9500  1.0830  201.37  166.18 -29.545  70.469  12.578  1.9020   .5440  2.5320  -.0140 -999.25 -999.25 -999.25 -999.25 -999.25   .8000   .7244 -999.25 -999.25
   289.560  65.684  12.506  1.0070   .9380  1.0730  200.65  167.10 -30.135  67.974  12.621  1.8930   .4630  2.5040  -.0150 -999.25 -999.25 -999.25 -999.25 -999.25   .8000   .7217 -999.25 -999.25
   289.712  66.199  12.510   .9700   .9250  1.0570  200.84  167.79 -29.552  65.803  12.596  1.8800   .4210  2.4680  -.0170 -999.25 -999.25 -999.25 -999.25 -999.25   .8000   .7188 -999.25 -999.25
   289.865  66.215  12.463   .9500   .9170  1.0520  201.51  168.41 -29.094  67.320  12.545  1.8680   .4310  2.4210  -.0200 -999.25 -999.25 -999.25 -999.25 -999.25   .8000   .7157 -999.25 -999.25
   290.017  64.446  12.416   .8900   .9200  1.0510  202.38  169.08 -29.290  69.749  12.523  1.8620   .4830  2.3670  -.0220 -999.25 -999.25 -999.25 -999.25 -999.25   .8000   .7124 -999.25 -999.25
   290.170  63.829  12.391   .8930   .9230  1.0540  202.70  170.00 -29.376  72.125  12.523  1.8620   .5190  2.3520  -.0220 -999.25 -999.25 -999.25 -999.25 -999.25   .8000   .7090 -999.25 -999.25
   290.322  64.300  12.387   .9770   .9270  1.0600  202.60  170.84 -29.153  73.542  12.523  1.8640   .5090  2.4230  -.0230 -999.25 -999.25 -999.25 -999.25 -999.25   .8000   .7054 -999.25 -999.25
   290.474  65.378  12.383  1.0030   .9340  1.0580  203.26  171.39 -29.517  74.414  12.523  1.8650   .4930  2.4860  -.0220 -999.25 -999.25 -999.25 -999.25 -999.25   .8000   .7017 -999.25 -999.25
   290.627  65.913  12.387   .9890   .9300  1.0570  204.92  172.78 -29.136  73.797  12.527  1.8610   .4840  2.5160  -.0190 -999.25 -999.25 -999.25 -999.25 -999.25   .8000   .6977 -999.25 -999.25
   290.779  64.686  12.387   .9480   .9350  1.0600  205.41  175.69 -28.401  73.137  12.527  1.8530   .4870  2.5590  -.0180 -999.25 -999.25 -999.25 -999.25 -999.25   .8000   .6936 -999.25 -999.25
   290.932  63.328  12.383   .9320   .9200  1.0450  205.10  178.63 -28.340  74.696  12.523  1.8430   .4950  2.6280  -.0210 -999.25 -999.25 -999.25 -999.25 -999.25   .8000   .6893 -999.25 -999.25
   291.084  61.693  12.379   .9460   .8890  1.0140  206.97  180.55 -27.828  76.426  12.523  1.8340   .5370  2.6720  -.0230 -999.25 -999.25 -999.25 -999.25 -999.25   .9000   .6851 -999.25 -999.25
   291.236  60.196  12.391   .9210   .8790  1.0110  207.96  181.80 -27.626  76.009  12.523  1.8270   .5770  2.6450  -.0260 -999.25 -999.25 -999.25 -999.25 -999.25   .9000   .6808 -999.25 -999.25
   291.389  60.641  12.406   .7650   .8800  1.0080  206.05 -999.25 -27.734  73.312  12.523  1.8220   .5580  2.6060  -.0290 -999.25 -999.25 -999.25 -999.25 -999.25   .9000   .6765 -999.25 -999.25
   291.541 -999.25 -999.25 -999.25 -999.25 -999.25 -999.25 -999.25 -999.25 -999.25 -999.25 -999.25 -999.25 -999.25 -999.25 -999.25 -999.25 -999.25 -999.25 -999.25   .9000   .6722 -999.25 -999.25
   291.694  62.093  12.406   .7470   .8890  1.0140  208.02  185.78 -28.031  71.655  12.523  1.8240   .5290  2.5640  -.0280 -999.25 -999.25 -999.25 -999.25 -999.25   .9000   .6680 -999.25 -999.25
   291.846  63.874  12.410   .8900   .9140  1.0440  210.24  194.45 -28.222  70.008  12.523  1.8320   .5140  2.5140  -.0270 -999.25 -999.25 -999.25 -999.25 -999.25   .9000   .6637 -999.25 -999.25
   291.998  64.725  12.410   .9280   .9260  1.0530  209.29  200.05 -28.430  68.690  12.523  1.8390   .5350  2.4890  -.0270 -999.25 -999.25 -999.25 -999.25 -999.25   .9000   .6594 -999.25 -999.25
   292.151  65.174  12.398   .9690   .9140  1.0490  208.33  200.56 -28.888  70.199  12.523  1.8480   .5100  2.4600  -.0250 -999.25 -999.25 -999.25 -999.25 -999.25   .8000   .6551 -999.25 -999.25
   292.303  65.172  12.399  1.0340   .9060  1.0420  208.43  200.83 -29.435  72.345  12.523  1.8550   .4720  2.4150  -.0230 -999.25 -999.25 -999.25 -999.25 -999.25   .8000   .6509 -999.25 -999.25
   292.456  64.041  12.398  1.0510   .9110  1.0440  209.10  200.24 -29.505  72.307  12.523  1.8600   .4670  2.3950  -.0220 -999.25 -999.25 -999.25 -999.25 -999.25   .8000   .6466 -999.25 -999.25
   292.608  62.195  12.399   .9750   .9100  1.0440  208.74  199.41 -29.972  71.266  12.523  1.8720   .5050  2.4650  -.0170 -999.25 -999.25 -999.25 -999.25 -999.25   .8000   .6423 -999.25 -999.25
   292.760  62.329  12.415   .9380   .9080  1.0430  208.55  199.35 -29.956  72.329  12.528  1.8830   .5280  2.5950  -.0130 -999.25 -999.25 -999.25 -999.25 -999.25   .8000   .6380 -999.25 -999.25
   292.913  63.917  12.430   .9800   .9140  1.0500  210.15  199.89 -29.188  73.634  12.531  1.8920   .5070  2.6720  -.0090 -999.25 -999.25 -999.25 -999.25 -999.25   .8000   .6338 -999.25 -999.25
   293.065  65.684  12.438  1.0170   .9100  1.0370  221.05  200.31 -28.697  71.930  12.531  1.8910   .4840  2.7270  -.0080 -999.25 -999.25 -999.25 -999.25 -999.25  1.0000   .6295 -999.25 -999.25
   293.218  67.971  12.438   .9960   .8860  1.0140  229.09  201.28 -28.489  68.609  12.561  1.8760   .4780  2.7320  -.0090 -999.25 -999.25 -999.25 -999.25 -999.25  1.0000   .6252 -999.25 -999.25
   293.370  69.073  12.429   .9190   .8850  1.0060  229.27  201.73 -28.402  67.980  12.552  1.8590   .4810  2.6480  -.0120 -999.25 -999.25 -999.25 -999.25 -999.25  1.0000   .6209 -999.25 -999.25
   293.522  67.635  12.430   .7660   .8850  1.0020  230.05  201.30 -28.092  70.272  12.523  1.8510   .4970  2.5010  -.0130 -999.25 -999.25 -999.25 -999.25 -999.25  1.0000   .6167 -999.25 -999.25
   293.675  64.214  12.438   .7680   .8790  1.0050  230.72  201.23 -28.465  71.389  12.528  1.8600   .5210  2.3680  -.0120 -999.25 -999.25 -999.25 -999.25 -999.25  1.0000   .6124 -999.25 -999.25
   293.827  63.487  12.438   .8980   .9090  1.0390  230.62  202.62 -28.702  72.123  12.592  1.8750   .5840  2.3800  -.0120 -999.25 -999.25 -999.25 -999.25 -999.25  1.0000   .6081 -999.25 -999.25
   293.980  65.000  12.438   .8980   .9340  1.0530  229.22  203.80 -28.208  70.631  12.645  1.8840   .5720  2.4620  -.0140 -999.25 -999.25 -999.25 -999.25 -999.25  1.0000   .6038 -999.25 -999.25
   294.132  66.146  12.438   .9300   .9220  1.0450  228.41  204.64 -28.766  68.264  12.578  1.8860   .5070  2.5420  -.0140 -999.25 -999.25 -999.25 -999.25 -999.25   .8000   .5996 -999.25 -999.25
   294.284  66.402  12.438   .9950   .9240  1.0480  227.24  204.97 -29.589  68.035  12.528  1.8810   .4860  2.5590  -.0150 -999.25 -999.25 -999.25 -999.25 -999.25   .8000   .5953 -999.25 -999.25
