~Version Information
VERS.                     2.0: CWLS log ASCII Standard Version 2.00
WRAP.                      NO: One line per depth step
~Well Information Block
#MNEM.UNIT                               Data Type  Information
#---------                               ---------  -----------
STRT.M                                       .0000:
STOP.M                                    632.0028:
STEP.M                                       .1524:
NULL.                 -999.25                     :
COMP.     DORAL RESOURCES NL                      :COMPANY            
WELL.     TUBRIDGI - 10                           :WELL               
FLD .                                             :FIELD              
CTRY.                                             :COUNTRY            
STAT.                                             :STATE              
LOC .                                             :LOCATION           
UWI .                                             :UNIQUE WELL ID     
SRVC.                                             :Service company    
DATE.                                             :LOG DATE           
~Curve Information
#MNEM    .UNIT           API CODE  Curve Description
#-------------           --------  -----------------
DEPT    .M                       :   1 DEPTH
GR      .GAPI                    :   2
CALS    .IN                      :   3
MSFL    .OHMM                    :   4
LLS     .OHMM                    :   5
LLD     .OHMM                    :   6
DTLN    .US/F                    :   7
DTLF    .US/F                    :   8
SP      .MV                      :   9
GR      .                        :  10
CALI    .                        :  11
RHOB    .                        :  12
TNPH    .                        :  13
PEF     .                        :  14
DRHO    .                        :  15
HGR     .                        :  16
HRHO    .                        :  17
HTNP    .                        :  18
HPEF    .                        :  19
HDRH    .                        :  20
ROP     .min/                    :  21
TG      .%                       :  22
GR      .                        :  23
NPHI    .                        :  24
~A
# ...
   531.266  103.79  12.607  3.0280  2.1920  2.6910  130.68  126.70 -11.775  100.98  12.523  2.3020   .3720  2.1090   .0010  105.68  2.2880   .3990  2.0600  -.0060  3.0000   .1725 -999.25 -999.25
   531.419  103.02  12.570  3.0510  2.1960  2.7110  129.14  128.15 -11.592  102.38  12.502  2.3010   .3950  2.1230  -.0010  104.84  2.2910   .3840  2.0860  -.0080  3.0000   .1712 -999.25 -999.25
   531.571  103.53  12.557  3.1700  2.2280  2.7560  124.36  128.86 -11.515  106.07  12.487  2.2990   .4230  2.0760  -.0030  107.40  2.2930   .3780  2.1620  -.0090  3.0000   .1699 -999.25 -999.25
   531.724  104.11  12.539  3.0570  2.2240  2.7850  121.42  126.56 -12.021  106.90  12.415  2.2900   .4360  2.1130  -.0060  113.40  2.3020   .3840  2.0560   .0040  3.0000   .1687 -999.25 -999.25
   531.876  105.06  12.504  2.9090  2.1170  2.6670  120.45  123.00 -11.285  105.66  12.383  2.2880   .4160  2.1850  -.0060  115.94  2.3100   .3860  2.0420   .0170  3.0000   .1674 -999.25 -999.25
   532.028  100.92  12.471  2.7280  1.8680  2.3720  118.58  119.24 -12.008  100.77  12.377  2.2930   .3660  2.2590   .0030  111.49  2.3050   .3920  2.0210   .0090  1.0000   .1661 -999.25 -999.25
   532.181  94.804  12.439  1.9190  1.7300  2.1870  121.64  116.22 -11.561  95.242  12.315  2.3050   .3340  2.2370   .0150  105.28  2.2860   .3900  2.2520   .0050  1.0000   .1648 -999.25 -999.25
   532.333  88.426  12.446  1.2850  1.7210  2.1810  122.81  116.59 -11.430  90.290  12.256  2.3310   .3160  2.1900   .0340  95.094  2.3100   .3780  2.2580   .0160  1.0000   .1636 -999.25 -999.25
   532.486  87.401  12.530   .9360  1.7850  2.2630  121.20  114.35 -11.409  87.017  12.242  2.3600   .3220  2.1450   .0480  87.011  2.3200   .3490  2.1610   .0280  1.0000   .1623 -999.25 -999.25
   532.638  89.222  12.667  1.4550  1.9470  2.4850  118.56  106.14 -11.294  86.514  12.429  2.3910   .3150  2.2990   .0410  89.544  2.3690   .3160  2.2470   .0490  1.0000   .1610 -999.25 -999.25
   532.790  91.540  12.617  2.7960  1.9580  2.5120  114.09  109.23 -9.7450  86.492  12.469  2.4170   .3070  2.5020   .0210  94.750  2.4180   .2880  2.1850   .0530  1.0000   .1598 -999.25 -999.25
   532.943  88.821  12.545  2.3410  1.7150  2.1860  112.81  120.11 -10.097  84.211  12.403  2.4420   .2990  2.7430   .0120  92.514  2.4420   .2820  3.0670   .0230  1.0000   .1585 -999.25 -999.25
   533.095  81.034  12.442  1.4250  1.4580  1.8380  123.29  122.95 -10.705  75.029  12.338  2.4230   .3040  2.7530   .0080  85.704  2.4310   .2890  3.1040   .0010  1.5000   .1572 -999.25 -999.25
   533.248  68.100  12.406   .9050  1.2780  1.5880  128.41  121.58 -8.8080  64.074  12.264  2.3800   .3180  2.4830   .0110  75.778  2.4020   .2950  2.7150   .0070  1.5000   .1560 -999.25 -999.25
   533.400  54.217  12.418   .5780  1.1990  1.4740  129.52  122.24 -8.2140  51.045  12.242  2.3490   .3090  2.1750   .0460  56.760  2.3570   .2930  2.8400   .0110  1.5000   .1547 -999.25 -999.25
   533.552  44.507  12.581   .5100  1.1990  1.5090  126.96  124.15 -6.0400  41.758  12.305  2.2910   .3010  2.0190   .0700  45.691  2.3050   .2990  2.4250   .0080  1.5000   .1534 -999.25 -999.25
   533.705  39.146  12.749   .4370  1.2040  1.5490  130.07  126.06 -4.9370  35.553  12.654  2.1990   .3050  1.8840   .0700  38.775  2.2280   .3100  2.0280   .0300  1.5000   .1522 -999.25 -999.25
   533.857  35.331  14.411   .3940  1.2270  1.5810  133.44  124.46 -4.6410  30.649  13.153  2.0250   .3330  1.7400   .0470  33.265  2.1800   .3300  1.8730   .0630  1.5000   .1509 -999.25 -999.25
   534.010  30.720  16.247   .2830  1.2330  1.6120  135.58  125.16 -4.5010  29.264  14.949  1.7790   .3760  1.6130   .0120  30.617  2.0080   .3690  1.7030   .0490  1.5000   .1496 -999.25 -999.25
   534.162  26.007  16.292   .2250  1.1850  1.5350  130.29  125.02 -4.7880  26.924  15.973  1.6170   .4500  1.5980  -.0080  27.466  1.7790   .4180  1.5970   .0190   .5000   .1483 -999.25 -999.25
   534.314  24.022  16.635   .1640  1.1190  1.4590  125.68  123.63 -4.8450  27.543  16.347  1.5930   .5250  1.5990  -.0090  29.416  1.5630   .4330  1.5220   .0030   .5000   .1476 -999.25 -999.25
   534.467  23.961  16.950   .1620  1.0800  1.3860  119.91  122.75 -4.1170  26.664  16.539  1.6600   .5160  1.6260   .0010  28.210  1.6330   .4150  1.6800   .0090   .5000   .1474 -999.25 -999.25
   534.619  25.413  17.354   .1730  1.0460  1.3350  118.53  121.52 -4.9660  26.254  17.736  1.7260   .4250  1.6830   .0070  25.301  1.8200   .4110  1.5920   .0520   .5000   .1476 -999.25 -999.25
   534.772  25.764  17.267   .1660  1.0610  1.3650  122.70  120.84 -4.1590  25.565  17.848  1.7660   .3770  1.8850   .0090  24.730  1.7730   .4240  1.6000   .0680   .5000   .1484 -999.25 -999.25
   534.924  27.393  16.064   .1890  1.1160  1.4420  122.24  119.30 -3.2380  28.291  16.560  1.8710   .3960  2.1810   .0240  26.481  1.8150   .4150  1.8500   .0530   .5000   .1497 -999.25 -999.25
   535.076  28.314  15.315   .2200  1.2110  1.5780  125.23  117.64 -2.9160  30.786  15.504  1.9710   .3910  2.1250   .0410  32.339  1.9760   .4080  2.2280   .0330  2.4000   .1515 -999.25 -999.25
   535.229  29.643  14.520   .2520  1.2740  1.6710  125.45  117.73 -3.6230  33.954  14.302  1.9700   .3920  1.9570   .0320  37.484  2.0390   .3980  2.3620   .0380  2.4000   .1539 -999.25 -999.25
   535.381  28.922  13.951   .2180  1.2550  1.6600  123.96  117.38 -4.5170  33.853  13.941  1.9540   .3670  1.7770   .0320  34.584  2.0080   .4000  1.8570   .0780  2.4000   .1567 -999.25 -999.25
   535.534  29.961  13.582   .2820  1.2040  1.5910  133.96  117.38 -5.3620  33.594  13.794  2.0110   .3890  1.8900   .0450  32.974  1.9950   .3910  1.8160   .0990  2.4000   .1601 -999.25 -999.25
   535.686  29.903  13.030   .3430  1.1150  1.4580  126.17  115.37 -4.2320  36.434  13.256  2.0990   .4110  1.9700   .0610  35.064  2.0980   .3740  2.0480   .0840  2.4000   .1640 -999.25 -999.25
   535.838  32.168  12.911   .3420  1.0600  1.3550  125.72  115.83 -5.4030  39.926  13.006  2.1580   .4250  1.9520   .0790  33.481  2.1370   .3710  2.0980   .0460  2.4000   .1684 -999.25 -999.25
   535.991  35.706  12.722   .3170  1.0290  1.3200  126.80  116.63 -6.1190  45.355  12.599  2.1510   .4240  1.8500   .0740  35.173  2.1080   .3740  2.0760   .0290  2.4000   .1728 -999.25 -999.25
   536.143  42.856  12.572   .2960  1.0740  1.3790  124.99  114.56 -5.3510  47.364  12.432  2.1570   .4190  1.8200   .0630  41.196  2.1620   .3920  1.9370   .0650  3.4000   .1772 -999.25 -999.25
   536.296  47.947  12.378   .4410  1.1600  1.4870  117.31  111.98 -6.3220  47.488  12.339  2.2240   .4190  1.8380   .0830  49.205  2.2340   .4000  1.8360   .0970  3.4000   .1815 -999.25 -999.25
   536.448  47.532  12.380   .4900  1.1840  1.4970  111.00  111.82 -5.1620  43.177  12.345  2.2530   .4390  1.8810   .0790  50.415  2.2590   .4100  1.9310   .0820  3.4000   .1859 -999.25 -999.25
   536.600  40.485  12.365   .4560  1.1100  1.3740  111.27  112.55 -4.9650  37.535  12.156  2.2350   .4230  1.9350   .0520  40.684  2.2400   .4010  1.8980   .0390  3.4000   .1903 -999.25 -999.25
   536.753  33.084  12.435   .3670   .9720  1.2000  112.17  112.45 -5.2640  33.700  12.160  2.1890   .4020  1.9670   .0400  32.217  2.1850   .3900  1.8780   .0150  3.4000   .1947 -999.25 -999.25
   536.905  28.157  12.676   .3380   .8290  1.0390  111.57  111.23 -4.2740  31.331  12.465  2.1640   .3210  1.9300   .0370  30.119  2.1480   .3710  2.0330   .0110  3.4000   .1991 -999.25 -999.25
   537.058  26.077  13.066   .3200   .7480   .9400  110.58  111.49 -3.1060  29.748  12.877  2.1290   .3190  1.9000   .0220  30.959  2.1520   .3560  1.9670   .0290  1.0000   .2035 -999.25 -999.25
   537.210  25.797  13.288   .2900   .6990   .8820  111.47  112.23 -3.3680  30.886  13.146  2.1310   .3330  1.9000   .0170  29.834  2.1420   .3750  1.7900   .0390  1.0000   .2079 -999.25 -999.25
   537.362  28.638  12.842   .2850   .7300   .9250  111.45  112.90 -4.2500  36.767  12.748  2.1590   .3860  2.0490   .0360  31.125  2.1640   .4100  1.7280   .0310  1.0000   .2123 -999.25 -999.25
   537.515  39.425  12.450   .3320   .8800  1.1340  117.80  115.21 -6.5850  51.283  12.312  2.2120   .4130  2.2590   .0380  39.989  2.1700   .4370  1.8560   .0180  1.0000   .2167 -999.25 -999.25
