~Version Information
VERS.                     2.0: CWLS log ASCII Standard Version 2.00
WRAP.                      NO: One line per depth step
~Well Information Block
#MNEM.UNIT                               Data Type  Information
#---------                               ---------  -----------
STRT.M                                       .0000:
STOP.M                                    632.0028:
STEP.M                                       .1524:
NULL.                 -999.25                     :
COMP.     DORAL RESOURCES NL                      :COMPANY            
WELL.     TUBRIDGI - 10                           :WELL               
FLD .                                             :FIELD              
CTRY.                                             :COUNTRY            
STAT.                                             :STATE              
LOC .                                             :LOCATION           
UWI .                                             :UNIQUE WELL ID     
SRVC.                                             :Service company    
DATE.                                             :LOG DATE           
~Curve Information
#MNEM    .UNIT           API CODE  Curve Description
#-------------           --------  -----------------
DEPT    .M                       :   1 DEPTH
GR      .GAPI                    :   2
CALS    .IN                      :   3
MSFL    .OHMM                    :   4
LLS     .OHMM                    :   5
LLD     .OHMM                    :   6
DTLN    .US/F                    :   7
DTLF    .US/F                    :   8
SP      .MV                      :   9
GR      .                        :  10
CALI    .                        :  11
RHOB    .                        :  12
TNPH    .                        :  13
PEF     .                        :  14
DRHO    .                        :  15
HGR     .                        :  16
HRHO    .                        :  17
HTNP    .                        :  18
HPEF    .                        :  19
HDRH    .                        :  20
ROP     .min/                    :  21
TG      .%                       :  22
GR      .                        :  23
NPHI    .                        :  24
~A
# ...
   563.270  52.334  13.131   .4540  1.0200  1.2080  107.24 -999.25 -8.7410  61.894  12.833  2.3740   .3130  3.1910   .0590  72.264  2.2850   .2270  2.7860   .0080  1.8000   .3127 -999.25 -999.25
   563.423 -999.25 -999.25 -999.25 -999.25 -999.25 -999.25 -999.25 -999.25 -999.25 -999.25 -999.25 -999.25 -999.25 -999.25  72.264  2.4070   .2250  3.0940   .0730  1.8000   .3141 -999.25 -999.25
   563.575  55.344  12.770   .4210   .9590  1.1420  111.45  112.67 -8.5040  62.875  12.711  2.3420   .3370  3.1260   .0680  72.264  2.5120   .2240  3.1800   .0990  1.8000   .3155 -999.25 -999.25
   563.728  60.307  12.491   .4160   .9660  1.1610  113.65  113.81 -8.3930  65.163  12.530  2.2560   .3640  3.0320   .0640  72.264  2.2990   .2250  2.7350   .0420  1.8000   .3169 -999.25 -999.25
   563.880  66.928  12.380   .3890  1.0440  1.2640  112.95  113.08 -8.8140  69.238  12.284  2.2220   .3690  2.8790   .0590  72.264  2.1710   .2260  2.6050   .0460  1.8000   .3183 -999.25 -999.25
   564.032  74.280  12.490   .4050  1.1980  1.4650  112.39  112.42 -8.5220  74.518  12.322  2.2960   .3720  2.6390   .0670  72.264  2.2850   .2280  3.2220   .0900  3.0000   .3197 -999.25 -999.25
   564.185  79.962  12.631   .6620  1.4410  1.7820  111.18  111.55 -8.3340  77.207  12.527  2.4020   .3800  2.3900   .0770  72.264  2.4530   .2280  2.8220   .0960  3.0000   .3211 -999.25 -999.25
   564.337  81.363  12.752  1.0640  1.6890  2.0840  108.79  110.46 -8.3940  76.449  12.750  2.4260   .3930  2.2740   .0610  72.264  2.4380   .2270  2.3030   .0500  3.0000   .3218 -999.25 -999.25
   564.490  80.539  12.814  1.4430  1.8660  2.2960  106.93  108.04 -8.8290  74.468  12.897  2.3870   .3900  2.4380   .0300  72.264  2.3610   .2250  2.4370   .0310  3.0000   .3220 -999.25 -999.25
   564.642  80.491  12.803  1.5380  1.9030  2.3650  105.44  104.73 -9.2140  73.911  12.830  2.3830   .3810  2.7160   .0150  72.264  2.3800   .2240  2.6900   .0450  3.0000   .3215 -999.25 -999.25
   564.794  79.779  12.757  1.2650  1.7990  2.2560  102.54  101.31 -8.6850  73.734  12.685  2.4140   .3760  3.0350   .0190  72.264  2.4140   .2240  2.7080   .0310  3.0000   .3203 -999.25 -999.25
   564.947  74.595  12.717  1.4440  1.6270  2.0320  98.972  97.605 -7.8700  71.023  12.636  2.4620   .3620  3.3560   .0410  72.264  2.4230   .2250  3.1230   .0130  3.0000   .3186 -999.25 -999.25
   565.099  66.891  12.582  1.5570  1.4190  1.7660  94.602  94.220 -7.5510  66.228  12.473  2.5050   .3330  3.8280   .0600  72.264  2.4440   .2260  3.6660   .0310  1.1000   .3162 -999.25 -999.25
   565.252  58.683  12.476  1.0220  1.2200  1.5120  91.811  92.992 -7.2290  62.135  12.365  2.5290   .2930  3.7280   .0650  72.264  2.5400   .2270  3.8850   .0730  1.1000   .3132 -999.25 -999.25
   565.404  52.464  12.447   .7040  1.0580  1.2950  93.863  95.100 -7.0670  58.815  12.366  2.5080   .2520  3.1290   .0590  72.264  2.5620   .2270  4.0220   .0830  1.1000   .3096 -999.25 -999.25
   565.556  51.142  12.598   .6750   .9920  1.2070  99.869  99.854 -6.9980  59.462  12.373  2.4190   .2360  2.6580   .0570  72.264  2.4960   .2270  3.1740   .0600  1.1000   .3053 -999.25 -999.25
   565.709  55.275  12.791   .5710   .9940  1.2040  105.49  105.73 -6.9130  63.616  12.417  2.2880   .2530  2.3550   .0440  72.264  2.3280   .2280  2.3360   .0310  1.1000   .3004 -999.25 -999.25
   565.861  66.007  12.609   .4540  1.0380  1.2500  109.02  110.85 -7.1260  72.131  12.464  2.1940   .2900  2.2490   .0290  72.264  2.2110   .2270  2.1260   .0540  1.1000   .2949 -999.25 -999.25
   566.014  77.015  12.395   .4070  1.1220  1.3560  111.99  113.91 -7.0040  82.203  12.396  2.1900   .3080  2.2990   .0380  72.264  2.2030   .2270  2.2050   .0880  1.1000   .2894 -999.25 -999.25
   566.166  81.592  12.478   .4190  1.1120  1.3350  115.00  115.70 -6.4760  87.878  12.426  2.2160   .3230  2.2700   .0560  72.264  2.2500   .2270  2.4040   .0750  2.4000   .2839 -999.25 -999.25
   566.318  78.050  13.093   .5900  1.0350  1.2180  116.36  118.02 -7.8330  87.672  12.857  2.1490   .3520  2.1120   .0380  72.264  2.2540   .2270  2.2480   .0590  2.4000   .2784 -999.25 -999.25
   566.471  71.202  13.447   .4990   .9820  1.1460  117.38  120.81 -8.6880  85.755  13.085  2.0460   .3960  1.9930   .0130  72.264  2.1310   .2240  1.9560   .0630  2.4000   .2728 -999.25 -999.25
   566.623  69.233  12.917   .2720   .9180  1.0740  118.56  119.83 -8.0240  86.588  12.734  2.0250   .3910  2.0060   .0140  72.264  2.0430   .2230  1.8920   .0620  2.4000   .2673 -999.25 -999.25
   566.776  74.183  12.691   .3190   .9500  1.1140  116.86  116.29 -9.2370  94.518  12.432  2.0940   .3630  2.1300   .0290  72.264  2.0690   .2250  2.0870   .0370  2.4000   .2618 -999.25 -999.25
   566.928  86.994  12.794   .3980  1.1060  1.3000  114.93  114.26 -9.5790  102.21  12.433  2.1850   .3350  2.2290   .0320  72.264  2.1600   .2270  2.1290   .0210  2.4000   .2563 -999.25 -999.25
   567.080  99.608  12.617   .4280  1.2850  1.5240  116.37  112.99 -8.9520  105.01  12.418  2.2630   .3240  2.4070   .0340  72.264  2.2220   .2270  2.4620   .0160  3.0000   .2508 -999.25 -999.25
   567.233  105.45  12.478   .7330  1.4350  1.7190  113.62  113.13 -9.4140  101.09  12.406  2.3240   .3240  2.6430   .0310  72.264  2.3070   .2270  2.6420   .0230  3.0000   .2453 -999.25 -999.25
   567.385  100.33  12.553  1.1510  1.5080  1.8090  111.86  112.86 -10.651  94.446  12.511  2.3670   .3350  2.7220   .0180  72.264  2.3760   .2270  2.6420   .0370  3.0000   .2398 -999.25 -999.25
   567.538  93.389  12.647  1.7460  1.4730  1.7660  112.26  112.40 -11.357  94.321  12.617  2.3850   .3600  2.6270   .0110  72.264  2.3960   .2270  2.6420   .0460  3.0000   .2342 -999.25 -999.25
   567.690  90.526  12.686  1.4770  1.4060  1.7000  113.92  112.86 -11.949  97.593  12.611  2.3880   .3870  2.5530   .0100  72.264  2.3980   .2270  2.6420   .0480  3.0000   .2287 -999.25 -999.25
   567.842  89.851  12.714  1.2950  1.4000  1.7010  114.31  112.54 -12.086  101.76  12.610  2.3860   .3990  2.6130   .0100  72.264  2.3980   .2270  2.6420   .0480  3.0000   .2232 -999.25 -999.25
   567.995  88.033  12.712  1.5330  1.4450  1.7710  111.47  111.47 -11.923  98.967  12.649  2.3990   .3720  2.8370   .0110  72.264  2.3980   .2270  2.6420   .0480  3.0000   .2177 -999.25 -999.25
   568.147  85.369  12.708  1.8000  1.4410  1.7900  110.37  111.28 -11.396  92.794  12.650  2.4220   .3450  2.9990   .0120  72.264  2.3980   .2270  2.5050   .0480  1.8000   .2122 -999.25 -999.25
   568.300  84.049  12.842  1.9070  1.4130  1.7530  111.78  112.22 -11.251  87.742  12.660  2.4330   .3220  2.6810   .0150  72.264  2.3980   .2270  2.8120   .0480  1.8000   .2067 -999.25 -999.25
   568.452  84.008  12.902  1.4510  1.3740  1.6900  114.69  114.33 -10.912  88.535  12.726  2.4010   .3500  2.3000   .0170  92.778  2.3030   .4210  2.9700   .0040  1.8000   .2012 -999.25 -999.25
   568.604  85.897  12.713  1.0850  1.3190  1.6260  116.57  115.40 -11.116  93.275  12.610  2.3460   .3740  2.0850   .0150 -999.25 -999.25 -999.25 -999.25 -999.25  1.8000   .1956 -999.25 -999.25
   568.757  87.255  12.570   .8890  1.2500  1.5560  116.14  113.63 -11.004  96.076  12.335  2.3380   .3480  2.3470   .0230 -999.25 -999.25 -999.25 -999.25 -999.25  1.8000   .1901 -999.25 -999.25
   568.909  85.564  12.552   .9250  1.1690  1.4630  113.91  110.99 -10.731  96.027  12.237  2.4150   .3020  3.4070   .0430 -999.25 -999.25 -999.25 -999.25 -999.25  1.8000   .1846 -999.25 -999.25
   569.062  80.127  12.500  1.0290  1.1320  1.4180  109.82  108.99 -10.508  90.352  12.207  2.5410   .2790  4.4410   .0580 -999.25 -999.25 -999.25 -999.25 -999.25   .9000   .1791 -999.25 -999.25
   569.214  74.822  12.519   .8500  1.1680  1.4620  108.04  108.97 -9.7530  83.541  12.223  2.6170   .2980  4.2300   .0660 -999.25 -999.25 -999.25 -999.25 -999.25   .9000   .1736 -999.25 -999.25
   569.366  71.666  12.395   .7370  1.2450  1.5500  107.54  110.45 -9.2360  77.824  12.262  2.5740   .3170  3.6410   .0640 -999.25 -999.25 -999.25 -999.25 -999.25   .9000   .1687 -999.25 -999.25
   569.519  69.914  12.333   .7910  1.3620  1.6870  108.93  110.11 -8.9490  73.097  12.345  2.4920   .3310  3.2140   .0920 -999.25 -999.25 -999.25 -999.25 -999.25   .9000   .1643 -999.25 -999.25
