~Version Information
VERS.                     2.0: CWLS log ASCII Standard Version 2.00
WRAP.                      NO: One line per depth step
~Well Information Block
#MNEM.UNIT                               Data Type  Information
#---------                               ---------  -----------
STRT.M                                       .0000:
STOP.M                                    632.0028:
STEP.M                                       .1524:
NULL.                 -999.25                     :
COMP.     DORAL RESOURCES NL                      :COMPANY            
WELL.     TUBRIDGI - 10                           :WELL               
FLD .                                             :FIELD              
CTRY.                                             :COUNTRY            
STAT.                                             :STATE              
LOC .                                             :LOCATION           
UWI .                                             :UNIQUE WELL ID     
SRVC.                                             :Service company    
DATE.                                             :LOG DATE           
~Curve Information
#MNEM    .UNIT           API CODE  Curve Description
#-------------           --------  -----------------
DEPT    .M                       :   1 DEPTH
GR      .GAPI                    :   2
CALS    .IN                      :   3
MSFL    .OHMM                    :   4
LLS     .OHMM                    :   5
LLD     .OHMM                    :   6
DTLN    .US/F                    :   7
DTLF    .US/F                    :   8
SP      .MV                      :   9
GR      .                        :  10
CALI    .                        :  11
RHOB    .                        :  12
TNPH    .                        :  13
PEF     .                        :  14
DRHO    .                        :  15
HGR     .                        :  16
HRHO    .                        :  17
HTNP    .                        :  18
HPEF    .                        :  19
HDRH    .                        :  20
ROP     .min/                    :  21
TG      .%                       :  22
GR      .                        :  23
NPHI    .                        :  24
~A
# ...
   467.258  88.973  14.027   .6420  1.1070  1.2550  156.42  156.51 -33.895  100.68  12.679  2.0870   .5560  2.6140   .0640 -999.25 -999.25 -999.25 -999.25 -999.25  1.6000   .2785 -999.25 -999.25
   467.411  90.467  14.480  1.0250  1.1120  1.2570  157.22  156.87 -34.669  102.74  13.020  2.0770   .5380  2.6310   .0530 -999.25 -999.25 -999.25 -999.25 -999.25  1.6000   .2838 -999.25 -999.25
   467.563  91.559  14.572   .8020  1.0930  1.2450  158.50  156.82 -32.950  100.24  14.236  2.0270   .5110  2.5560   .0400 -999.25 -999.25 -999.25 -999.25 -999.25  1.6000   .2892 -999.25 -999.25
   467.716  93.475  13.892   .3560  1.0990  1.2510  179.13  155.70 -34.279  103.78  13.347  1.9830   .6250  2.4620   .0130 -999.25 -999.25 -999.25 -999.25 -999.25  1.6000   .2945 -999.25 -999.25
   467.868  96.298  13.709   .6760  1.1150  1.2900  155.29  161.39 -34.242  104.65  13.844  2.0010   .4710  2.4360   .0160 -999.25 -999.25 -999.25 -999.25 -999.25  1.6000   .2998 -999.25 -999.25
   468.020  98.957  13.636   .8220  1.1580  1.3050  155.02  168.72 -34.802  105.36  13.265  2.0320   .4130  2.5450   .0180 -999.25 -999.25 -999.25 -999.25 -999.25  1.6000   .3051 -999.25 -999.25
   468.173  97.911  13.206   .8430  1.1300  1.2890  155.90  151.56 -34.524  105.25  13.247  2.0570   .3840  2.6250   .0180 -999.25 -999.25 -999.25 -999.25 -999.25  3.0000   .3104 -999.25 -999.25
   468.325  96.109  13.572   .8390  1.1490  1.2950  165.22  152.07 -33.742  107.48  13.042  2.0550   .4480  2.6220   .0170 -999.25 -999.25 -999.25 -999.25 -999.25  3.0000   .3157 -999.25 -999.25
   468.478  96.016  13.312   .8960  1.1400  1.3010  150.82  152.84 -33.614  103.43  13.373  2.0500   .4610  2.5950   .0130 -999.25 -999.25 -999.25 -999.25 -999.25  3.0000   .3210 -999.25 -999.25
   468.630  99.537  13.300   .6600  1.1530  1.3200  151.38  153.59 -33.939  100.98  13.082  2.0470   .5260  2.5300   .0110 -999.25 -999.25 -999.25 -999.25 -999.25  3.0000   .3263 -999.25 -999.25
   468.782  100.08  13.347   .8250  1.1720  1.3310  155.88  155.64 -33.416  97.786  13.137  2.0680   .5130  2.6710   .0120 -999.25 -999.25 -999.25 -999.25 -999.25  3.0000   .3316 -999.25 -999.25
   468.935  99.433  13.402  1.2250  1.1150  1.2760  157.09  156.15 -32.596  100.07  13.080  2.0860   .4920  2.6380   .0170 -999.25 -999.25 -999.25 -999.25 -999.25  3.0000   .3369 -999.25 -999.25
   469.087  99.131  13.686  1.2800  1.0520  1.2010  156.99  155.39 -32.166  98.509  13.165  2.0660   .4940  2.4240   .0170 -999.25 -999.25 -999.25 -999.25 -999.25  2.1000   .3422 -999.25 -999.25
   469.240  95.704  15.328  1.0440  1.0300  1.1880  156.69  153.78 -31.976  98.564  14.006  2.0140   .4670  2.3270   .0170 -999.25 -999.25 -999.25 -999.25 -999.25  2.1000   .3475 -999.25 -999.25
   469.392  92.557  15.557   .3180  1.0360  1.1900  155.17  151.00 -33.034  98.000  15.399  1.9830   .4950  2.3820   .0150 -999.25 -999.25 -999.25 -999.25 -999.25  2.1000   .3522 -999.25 -999.25
   469.544  89.382  13.745   .8880  1.0680  1.2420  153.63  149.05 -32.998  100.02  14.898  2.0140   .4710  2.5970   .0260 -999.25 -999.25 -999.25 -999.25 -999.25  2.1000   .3564 -999.25 -999.25
   469.697  87.337  13.659  1.2130  1.1400  1.3160  152.93  149.76 -32.273  98.065  13.329  2.0500   .5140  2.5870   .0400 -999.25 -999.25 -999.25 -999.25 -999.25  2.1000   .3600 -999.25 -999.25
   469.849  86.864  13.360   .7700  1.1260  1.3080  153.28  151.92 -32.270  97.353  13.361  2.0200   .4900  2.4890   .0460 -999.25 -999.25 -999.25 -999.25 -999.25  2.1000   .3631 -999.25 -999.25
   470.002  86.231  14.239   .6410  1.1020  1.2810  154.16  153.18 -32.916  96.269  13.609  1.8800   .5030  2.1620   .0250 -999.25 -999.25 -999.25 -999.25 -999.25  2.1000   .3655 -999.25 -999.25
   470.154  87.115  15.137   .3120  1.0760  1.2400  154.50  153.34 -31.251  93.613  14.381  1.7330   .5050  2.0010   .0250 -999.25 -999.25 -999.25 -999.25 -999.25  5.6000   .3674 -999.25 -999.25
   470.306  85.721  15.426   .1790  1.0770  1.2540  152.71  153.34 -31.531  89.615  15.314  1.6990   .4390  1.9490   .0400 -999.25 -999.25 -999.25 -999.25 -999.25  5.6000   .3688 -999.25 -999.25
   470.459  83.990  15.187   .2050  1.1160  1.2890  152.75  151.95 -31.263  90.479  15.394  1.7570   .4240  2.2270   .0540 -999.25 -999.25 -999.25 -999.25 -999.25  5.6000   .3696 -999.25 -999.25
   470.611  80.833  15.577   .4990  1.1520  1.3390  151.13  146.09 -30.188  89.202  14.752  1.9130   .4390  2.4880   .0630 -999.25 -999.25 -999.25 -999.25 -999.25  5.6000   .3698 -999.25 -999.25
   470.764  81.143  13.989   .8350  1.2290  1.4440  141.32  135.97 -30.212  88.078  14.093  2.0500   .4790  2.4760   .0840 -999.25 -999.25 -999.25 -999.25 -999.25  5.6000   .3695 -999.25 -999.25
   470.916  78.190  13.936  1.0140  1.3380  1.5530  137.16  129.89 -30.403  82.006  13.717  2.0970   .4730  2.5080   .0700 -999.25 -999.25 -999.25 -999.25 -999.25  5.6000   .3686 -999.25 -999.25
   471.068  76.370  13.670   .8290  1.4120  1.6520  129.21  118.07 -30.270  78.693  13.626  2.0920   .4780  2.5490   .0540 -999.25 -999.25 -999.25 -999.25 -999.25  1.8000   .3676 -999.25 -999.25
   471.221  73.188  13.067  1.1620  1.3440  1.5790  138.84  116.19 -29.525  74.869  13.385  2.0780   .5600  2.3690   .0530 -999.25 -999.25 -999.25 -999.25 -999.25  1.8000   .3667 -999.25 -999.25
   471.373  73.415  13.202   .7990  1.2900  1.5180  144.02  132.81 -29.486  76.628  12.898  1.9750   .5860  2.1800   .0190 -999.25 -999.25 -999.25 -999.25 -999.25  1.8000   .3658 -999.25 -999.25
   471.526  75.289  15.442   .3250  1.2330  1.4300  168.72  144.36 -28.801  80.987  13.880  1.9110   .4930  2.0840   .0080 -999.25 -999.25 -999.25 -999.25 -999.25  1.8000   .3649 -999.25 -999.25
   471.678  77.778  15.990   .3090  1.1520  1.3490  176.21  154.75 -28.943  87.857  16.050  1.8950   .4800  2.1380   .0100 -999.25 -999.25 -999.25 -999.25 -999.25  1.8000   .3640 -999.25 -999.25
   471.830  79.789  15.219   .3890  1.1350  1.3250  177.29  155.46 -28.475  90.946  15.150  1.9230   .4750  2.3310   .0150 -999.25 -999.25 -999.25 -999.25 -999.25  1.8000   .3631 -999.25 -999.25
   471.983  83.803  15.673   .4850  1.0980  1.2690  176.26  155.31 -28.918  91.457  15.043  1.9340   .5300  2.4180   .0200 -999.25 -999.25 -999.25 -999.25 -999.25  1.8000   .3622 -999.25 -999.25
   472.135  83.778  15.553   .5240  1.0580  1.2130  178.13  156.16 -28.583  91.722  15.610  1.9340   .5720  2.3080   .0450 -999.25 -999.25 -999.25 -999.25 -999.25  1.9000   .3613 -999.25 -999.25
   472.288  83.448  14.164   .3060  1.0120  1.1720  180.37  157.30 -28.712  90.500  14.577  1.8410   .5530  2.2000   .0350 -999.25 -999.25 -999.25 -999.25 -999.25  1.9000   .3604 -999.25 -999.25
   472.440  80.652  14.929   .3370  1.0110  1.1610  182.43  157.49 -28.098  90.293  13.569  1.7820   .5500  2.1440   .0400 -999.25 -999.25 -999.25 -999.25 -999.25  1.9000   .3595 -999.25 -999.25
   472.592  80.549  14.872   .2720  1.0330  1.1890  182.39  157.29 -29.645  88.774  15.309  1.8240   .5260  2.2940   .0670 -999.25 -999.25 -999.25 -999.25 -999.25  1.9000   .3586 -999.25 -999.25
   472.745  82.688  13.592   .3240  1.0090  1.1650  180.89  156.24 -29.776  85.695  16.109  1.9220   .5920  2.4300   .0970 -999.25 -999.25 -999.25 -999.25 -999.25  1.9000   .3577 -999.25 -999.25
   472.897  82.534  13.124   .2370  1.0150  1.1660  178.82  154.95 -29.655  81.402  14.821  1.9640   .6360  2.4140   .1050 -999.25 -999.25 -999.25 -999.25 -999.25  1.9000   .3567 -999.25 -999.25
   473.050  82.836  13.999   .2740  1.0230  1.1780  179.07  157.11 -28.525  84.382  14.367  1.8900   .6450  2.3480   .0900 -999.25 -999.25 -999.25 -999.25 -999.25  1.2000   .3558 -999.25 -999.25
   473.202  81.017  14.038   .3140  1.0110  1.1650  180.04  159.22 -29.005  90.594  14.797  1.8540   .6330  2.2660   .0620 -999.25 -999.25 -999.25 -999.25 -999.25  1.2000   .3549 -999.25 -999.25
   473.354  82.785  13.345   .5440  1.0100  1.1610  175.27  158.19 -28.967  97.080  16.032  1.8830   .5030  2.2530   .0280 -999.25 -999.25 -999.25 -999.25 -999.25  1.2000   .3540 -999.25 -999.25
   473.507  81.123  13.324   .8650   .9920  1.1470  150.13  156.38 -29.130  96.887  16.664  1.9470   .5020  2.3670   .0020 -999.25 -999.25 -999.25 -999.25 -999.25  1.2000   .3531 -999.25 -999.25
