~Version Information
VERS.                     2.0: CWLS log ASCII Standard Version 2.00
WRAP.                      NO: One line per depth step
~Well Information Block
#MNEM.UNIT                               Data Type  Information
#---------                               ---------  -----------
STRT.M                                       .0000:
STOP.M                                    632.0028:
STEP.M                                       .1524:
NULL.                 -999.25                     :
COMP.     DORAL RESOURCES NL                      :COMPANY            
WELL.     TUBRIDGI - 10                           :WELL               
FLD .                                             :FIELD              
CTRY.                                             :COUNTRY            
STAT.                                             :STATE              
LOC .                                             :LOCATION           
UWI .                                             :UNIQUE WELL ID     
SRVC.                                             :Service company    
DATE.                                             :LOG DATE           
~Curve Information
#MNEM    .UNIT           API CODE  Curve Description
#-------------           --------  -----------------
DEPT    .M                       :   1 DEPTH
GR      .GAPI                    :   2
CALS    .IN                      :   3
MSFL    .OHMM                    :   4
LLS     .OHMM                    :   5
LLD     .OHMM                    :   6
DTLN    .US/F                    :   7
DTLF    .US/F                    :   8
SP      .MV                      :   9
GR      .                        :  10
CALI    .                        :  11
RHOB    .                        :  12
TNPH    .                        :  13
PEF     .                        :  14
DRHO    .                        :  15
HGR     .                        :  16
HRHO    .                        :  17
HTNP    .                        :  18
HPEF    .                        :  19
HDRH    .                        :  20
ROP     .min/                    :  21
TG      .%                       :  22
GR      .                        :  23
NPHI    .                        :  24
~A
# ...
   256.032  68.740  13.345  1.0650  1.0930  1.2960  189.37  187.34 -26.925  69.419  13.875  1.9380   .4510  2.7350  -.0010 -999.25 -999.25 -999.25 -999.25 -999.25   .8000   .7173 -999.25 -999.25
   256.184  66.467  13.294  1.0090  1.0870  1.2940  188.96  183.51 -26.956  69.250  13.824  1.9480   .4710  2.6840   .0020 -999.25 -999.25 -999.25 -999.25 -999.25   .8000   .7555 -999.25 -999.25
   256.337  65.304  13.318   .9640  1.0940  1.3080  188.50  182.82 -26.795  69.032  13.845  1.9470   .4850  2.5990  -.0010 -999.25 -999.25 -999.25 -999.25 -999.25   .8000   .7936 -999.25 -999.25
   256.489  66.047  13.409   .9610  1.0860  1.2980  188.12  185.82 -26.428  65.882  13.902  1.9430   .4700  2.5540  -.0070 -999.25 -999.25 -999.25 -999.25 -999.25   .8000   .8318 -999.25 -999.25
   256.642  66.035  13.495  1.0070  1.0640  1.2670  187.88  188.10 -27.285  62.506  13.914  1.9350   .4570  2.6030  -.0140 -999.25 -999.25 -999.25 -999.25 -999.25   .8000   .8700 -999.25 -999.25
   256.794  62.891  13.557  1.0340  1.0580  1.2760  187.98  189.32 -26.397  61.419  13.919  1.9240   .4510  2.7160  -.0190 -999.25 -999.25 -999.25 -999.25 -999.25   .8000   .9082 -999.25 -999.25
   256.946  60.069  13.650   .9460  1.0530  1.2690  188.04  190.46 -26.276  62.760  13.922  1.9180   .4840  2.8420  -.0180 -999.25 -999.25 -999.25 -999.25 -999.25   .8000   .9464 -999.25 -999.25
   257.099  58.569  13.734   .9550  1.0490  1.2520  188.31  191.41 -26.275  64.201  13.917  1.9140   .4930  2.9270  -.0130 -999.25 -999.25 -999.25 -999.25 -999.25   .4000   .9845 -999.25 -999.25
   257.251  59.743  13.792  1.0790  1.0510  1.2630  188.32  192.41 -25.686  63.732  13.914  1.9120   .4710  2.9200  -.0090 -999.25 -999.25 -999.25 -999.25 -999.25   .4000  1.0227 -999.25 -999.25
   257.404  61.034  13.783  1.1070  1.0590  1.2670  188.63  193.02 -25.765  64.249  13.899  1.9060   .4350  2.8610  -.0110 -999.25 -999.25 -999.25 -999.25 -999.25   .4000  1.0609 -999.25 -999.25
   257.556  62.811  13.731  1.0600  1.0550  1.2530  188.65  192.76 -25.701  65.814  13.822  1.9040   .4410  2.8140  -.0140 -999.25 -999.25 -999.25 -999.25 -999.25   .4000  1.0991 -999.25 -999.25
   257.708  65.179  13.711  1.1170  1.0460  1.2520  150.58  191.65 -25.657  65.784  13.776  1.9060   .4900  2.7740  -.0150 -999.25 -999.25 -999.25 -999.25 -999.25   .4000  1.1373 -999.25 -999.25
   257.861  67.624  13.741  1.1890  1.0530  1.2530  128.43  189.61 -25.941  63.813  13.773  1.9080   .4750  2.7370  -.0180 -999.25 -999.25 -999.25 -999.25 -999.25   .4000  1.1755 -999.25 -999.25
   258.013  68.563  13.763  1.2010  1.0530  1.2430  128.95  187.65 -26.088  61.699  13.773  1.9100   .4430  2.7000  -.0190 -999.25 -999.25 -999.25 -999.25 -999.25   .4000  1.2136 -999.25 -999.25
   258.166  66.838  13.776  1.2000  1.0330  1.2360  160.77  186.28 -26.976  61.673  13.783  1.9160   .4540  2.7610  -.0150 -999.25 -999.25 -999.25 -999.25 -999.25  1.0000  1.2518 -999.25 -999.25
   258.318  67.570  13.786  1.2010  1.0460  1.2400  179.05  185.13 -26.833  64.715  13.789  1.9180   .5600  2.8390  -.0110 -999.25 -999.25 -999.25 -999.25 -999.25  1.0000  1.2900 -999.25 -999.25
   258.470  69.434  13.794  1.2240  1.0540  1.2560  179.79  184.02 -27.317  65.538  13.804  1.9220   .6460  2.9280  -.0110 -999.25 -999.25 -999.25 -999.25 -999.25  1.0000  1.3282 -999.25 -999.25
   258.623  70.918  13.807  1.2500  1.0560  1.2650  179.41  182.61 -26.990  66.372  13.838  1.9300   .6370  2.9480  -.0090 -999.25 -999.25 -999.25 -999.25 -999.25  1.0000  1.3664 -999.25 -999.25
   258.775  70.040  13.838  1.2690  1.0670  1.2620  178.44  181.25 -27.246  66.219  13.893  1.9380   .5670  2.9340  -.0100 -999.25 -999.25 -999.25 -999.25 -999.25  1.0000  1.4045 -999.25 -999.25
   258.928  68.444  13.867  1.2870  1.0650  1.2590  176.98  178.64 -27.459  65.730  13.914  1.9390   .5430  2.9260  -.0130 -999.25 -999.25 -999.25 -999.25 -999.25  1.0000  1.4427 -999.25 -999.25
   259.080  68.125  13.875  1.3110  1.0660  1.2600  174.67  174.05 -27.432  67.060  13.914  1.9400   .5290  2.8870  -.0140 -999.25 -999.25 -999.25 -999.25 -999.25   .7000  1.4809 -999.25 -999.25
   259.232  67.978  13.875  1.3230  1.0720  1.2580  172.93  172.17 -27.526  68.127  13.914  1.9380   .5560  2.8950  -.0160 -999.25 -999.25 -999.25 -999.25 -999.25   .7000  1.5191 -999.25 -999.25
   259.385  69.053  13.896  1.3470  1.0780  1.2580  169.13  172.35 -27.573  70.374  13.914  1.9370   .5860  2.9240  -.0180 -999.25 -999.25 -999.25 -999.25 -999.25   .7000  1.5502 -999.25 -999.25
   259.537  70.598  13.927  1.3290  1.0700  1.2470  166.96  172.78 -28.234  70.063  13.914  1.9370   .5410  2.9540  -.0180 -999.25 -999.25 -999.25 -999.25 -999.25   .7000  1.5742 -999.25 -999.25
   259.690  69.573  13.916  1.3080  1.0630  1.2360  165.47  172.09 -27.706  67.096  13.914  1.9350   .4940  2.9000  -.0180 -999.25 -999.25 -999.25 -999.25 -999.25   .7000  1.5911 -999.25 -999.25
   259.842  69.646  13.906  1.3320  1.0590  1.2340  164.21  170.60 -27.794  65.229  13.914  1.9330   .4560  2.7850  -.0200 -999.25 -999.25 -999.25 -999.25 -999.25   .7000  1.6009 -999.25 -999.25
   259.994  68.450  13.852  1.3020  1.0660  1.2280  164.38  169.57 -28.457  65.650  13.898  1.9370   .4970  2.7510  -.0190 -999.25 -999.25 -999.25 -999.25 -999.25   .7000  1.6037 -999.25 -999.25
   260.147  69.223  13.796  1.2810  1.0590  1.2290  162.45  168.57 -29.003  68.642  13.826  1.9410   .5170  2.7580  -.0180 -999.25 -999.25 -999.25 -999.25 -999.25   .7000  1.5993 -999.25 -999.25
   260.299  68.220  13.759  1.2870  1.0630  1.2290  160.38  167.70 -29.004  70.901  13.606  1.9430   .5560  2.7340  -.0110 -999.25 -999.25 -999.25 -999.25 -999.25   .7000  1.5878 -999.25 -999.25
   260.452  67.369  13.761  1.2750  1.0500  1.2290  160.74  181.25 -29.036  71.944  12.866  1.9350   .5680  2.6990  -.0030 -999.25 -999.25 -999.25 -999.25 -999.25   .7000  1.5693 -999.25 -999.25
   260.604  66.828  13.766  1.2530  1.0410  1.2070  161.59  214.25 -28.484  69.237  12.542  1.9290   .6040  2.6660   .0000 -999.25 -999.25 -999.25 -999.25 -999.25   .7000  1.5437 -999.25 -999.25
   260.756  66.802  13.766  1.2560  1.0440  1.1960  162.79  224.25 -30.261  67.779  12.523  1.9230   .6490  2.6580  -.0020 -999.25 -999.25 -999.25 -999.25 -999.25   .7000  1.5110 -999.25 -999.25
   260.909  66.697  13.777  1.2590  1.0280  1.1940  163.34  210.59 -29.246  67.064  12.507  1.9280   .6820  2.5980  -.0030 -999.25 -999.25 -999.25 -999.25 -999.25   .7000  1.4712 -999.25 -999.25
   261.061  66.043  13.804  1.1250  1.0200  1.1900  163.33  180.80 -29.105  68.514  12.517  1.9280   .6590  2.5850  -.0090 -999.25 -999.25 -999.25 -999.25 -999.25   .8000  1.4313 -999.25 -999.25
   261.214  64.957  13.801  1.1830  1.0300  1.1940  163.16  169.50 -29.107  69.233  12.523  1.9300   .6340  2.6120  -.0170 -999.25 -999.25 -999.25 -999.25 -999.25   .8000  1.3915 -999.25 -999.25
   261.366  65.395  13.797  1.2320  1.0450  1.2110  162.88  167.57 -30.555  70.065  12.523  1.9370   .6820  2.6370  -.0170 -999.25 -999.25 -999.25 -999.25 -999.25   .8000  1.3517 -999.25 -999.25
   261.518  65.642  13.768  1.2610  1.0560  1.2260  162.65  166.41 -30.697  69.874  12.523  1.9420   .7660  2.6580  -.0150 -999.25 -999.25 -999.25 -999.25 -999.25   .8000  1.3119 -999.25 -999.25
   261.671  66.723  13.735  1.2890  1.0430  1.2280  162.38  166.63 -30.302  68.909  12.523  1.9470   .7380  2.6940  -.0100 -999.25 -999.25 -999.25 -999.25 -999.25   .8000  1.2721 -999.25 -999.25
   261.823  65.929  13.709  1.2800  1.0620  1.2360  163.11  168.30 -28.367  66.693  12.523  1.9500   .6090  2.7730  -.0070 -999.25 -999.25 -999.25 -999.25 -999.25   .8000  1.2323 -999.25 -999.25
   261.976  65.593  13.680  1.2710  1.0630  1.2410  163.55  169.60 -29.022  66.879  12.512  1.9510   .5310  2.8520  -.0020 -999.25 -999.25 -999.25 -999.25 -999.25   .8000  1.1925 -999.25 -999.25
   262.128  66.648  13.649  1.2390  1.0530  1.2450  163.01  169.62 -29.310  66.908  12.519  1.9470   .4940  2.8640  -.0030 -999.25 -999.25 -999.25 -999.25 -999.25   .9000  1.1527 -999.25 -999.25
   262.280  66.158  13.623  1.2490  1.0680  1.2540  163.47  169.76 -28.116  68.075  12.523  1.9390   .4840  2.8480  -.0030 -999.25 -999.25 -999.25 -999.25 -999.25   .9000  1.1129 -999.25 -999.25
