~Version Information
VERS.                     2.0: CWLS log ASCII Standard Version 2.00
WRAP.                      NO: One line per depth step
~Well Information Block
#MNEM.UNIT                               Data Type  Information
#---------                               ---------  -----------
STRT.M                                       .0000:
STOP.M                                    632.0028:
STEP.M                                       .1524:
NULL.                 -999.25                     :
COMP.     DORAL RESOURCES NL                      :COMPANY            
WELL.     TUBRIDGI - 10                           :WELL               
FLD .                                             :FIELD              
CTRY.                                             :COUNTRY            
STAT.                                             :STATE              
LOC .                                             :LOCATION           
UWI .                                             :UNIQUE WELL ID     
SRVC.                                             :Service company    
DATE.                                             :LOG DATE           
~Curve Information
#MNEM    .UNIT           API CODE  Curve Description
#-------------           --------  -----------------
DEPT    .M                       :   1 DEPTH
GR      .GAPI                    :   2
CALS    .IN                      :   3
MSFL    .OHMM                    :   4
LLS     .OHMM                    :   5
LLD     .OHMM                    :   6
DTLN    .US/F                    :   7
DTLF    .US/F                    :   8
SP      .MV                      :   9
GR      .                        :  10
CALI    .                        :  11
RHOB    .                        :  12
TNPH    .                        :  13
PEF     .                        :  14
DRHO    .                        :  15
HGR     .                        :  16
HRHO    .                        :  17
HTNP    .                        :  18
HPEF    .                        :  19
HDRH    .                        :  20
ROP     .min/                    :  21
TG      .%                       :  22
GR      .                        :  23
NPHI    .                        :  24
~A
# ...
   166.421  60.727  13.576   .4430  1.0590  1.5770 -999.25 -999.25 -11.528  63.621  13.612  1.7710   .5780  2.5970   .0080 -999.25 -999.25 -999.25 -999.25 -999.25  5.0000   .2398 -999.25 -999.25
   166.573  59.631  13.588   .3510   .9770  1.5340 -999.25 -999.25 -13.347  63.388  13.696  1.7560   .5890  2.4510   .0050 -999.25 -999.25 -999.25 -999.25 -999.25  5.0000   .2414 -999.25 -999.25
   166.726  59.541  14.118   .3710   .8920  1.3730 -999.25 -999.25 -15.772  61.220  13.679  1.7230   .7330  2.1120   .0010 -999.25 -999.25 -999.25 -999.25 -999.25  5.0000   .2431 -999.25 -999.25
   166.878  57.710  15.920   .4180   .8600  1.2880 -999.25 -999.25 -16.735  55.567  14.542  1.6480   .8790  1.9460  -.0070 -999.25 -999.25 -999.25 -999.25 -999.25  5.0000   .2448 -999.25 -999.25
   167.030  57.038  17.542   .1650   .8360  1.2330 -999.25 -999.25 -18.183  53.641  16.871  1.5840   .7970  1.9350  -.0150 -999.25 -999.25 -999.25 -999.25 -999.25  1.5000   .2464 -999.25 -999.25
   167.183  57.418  17.869   .2480   .8380  1.2080 -999.25 -999.25 -19.951  57.325  18.121  1.5970   .7300  2.1970  -.0180 -999.25 -999.25 -999.25 -999.25 -999.25  1.5000   .2481 -999.25 -999.25
   167.335  59.649  17.795   .5510   .8950  1.2880 -999.25 -999.25 -20.503  60.914  18.295  1.6840   .7120  2.3390  -.0110 -999.25 -999.25 -999.25 -999.25 -999.25  1.5000   .2498 -999.25 -999.25
   167.488  62.255  17.685   .6190   .9100  1.3190 -999.25 -999.25 -19.841  62.567  18.175  1.7620   .6730  2.2770   .0010 -999.25 -999.25 -999.25 -999.25 -999.25  1.5000   .2514 -999.25 -999.25
   167.640  63.341  17.873   .3740   .9050  1.2760 -999.25 -999.25 -20.004  62.300  18.245  1.7730   .5900  2.2570   .0050 -999.25 -999.25 -999.25 -999.25 -999.25  1.5000   .2531 -999.25 -999.25
   167.792  64.157  17.815   .3910   .9160  1.2820 -999.25 -999.25 -19.266  63.076  18.510  1.7620   .5870  2.3000   .0060 -999.25 -999.25 -999.25 -999.25 -999.25  1.5000   .2547 -999.25 -999.25
   167.945  63.227  17.922   .4850   .9130  1.2540 -999.25 -999.25 -18.137  64.447  18.272  1.7550   .6620  2.3020   .0060 -999.25 -999.25 -999.25 -999.25 -999.25  1.5000   .2564 -999.25 -999.25
   168.097  63.579  18.320   .5160   .8970  1.2070 -999.25 -999.25 -18.359  62.081  18.336  1.7470   .6410  2.2180   .0050 -999.25 -999.25 -999.25 -999.25 -999.25  1.2000   .2581 -999.25 -999.25
   168.250  63.907  18.825   .3550   .8680  1.1460 -999.25 -999.25 -18.473  62.449  19.079  1.7390   .5710  2.2930  -.0010 -999.25 -999.25 -999.25 -999.25 -999.25  1.2000   .2597 -999.25 -999.25
   168.402  64.189  17.989   .3880   .8240  1.0750 -999.25 -999.25 -18.698  66.423  19.513  1.7390   .5920  2.3310  -.0020 -999.25 -999.25 -999.25 -999.25 -999.25  1.2000   .2614 -999.25 -999.25
   168.554  65.273  17.821   .5930   .8010  1.0630 -999.25 -999.25 -18.952  70.391  18.285  1.7440   .6750  2.3330   .0000 -999.25 -999.25 -999.25 -999.25 -999.25  1.2000   .2630 -999.25 -999.25
   168.707  66.205  18.089   .4170   .7480  1.0220 -999.25 -999.25 -19.704  70.363  18.488  1.7310   .6890  2.2960   .0010 -999.25 -999.25 -999.25 -999.25 -999.25  1.2000   .2647 -999.25 -999.25
   168.859  66.550  17.680   .3630   .7200   .9980 -999.25 -999.25 -19.972  66.478  18.745  1.7120   .6140  2.2480   .0040 -999.25 -999.25 -999.25 -999.25 -999.25  1.2000   .2664 -999.25 -999.25
   169.012  64.787  17.656   .4790   .7280  1.0340 -999.25 -999.25 -19.362  65.047  17.980  1.7000   .6140  2.2330   .0110 -999.25 -999.25 -999.25 -999.25 -999.25  1.2000   .2680 -999.25 -999.25
   169.164  64.105  18.086   .3120   .7220  1.0220 -999.25 -999.25 -18.825  61.904  18.138  1.6970   .6860  2.2170   .0120 -999.25 -999.25 -999.25 -999.25 -999.25  1.6000   .2697 -999.25 -999.25
   169.316  62.440  18.757   .3950   .7150  1.0100 -999.25 -999.25 -18.858  59.532  18.592  1.6990   .8090  2.2370   .0110 -999.25 -999.25 -999.25 -999.25 -999.25  1.6000   .2707 -999.25 -999.25
   169.469  58.983  19.389   .5740   .7170  1.0310 -999.25 -999.25 -19.163  56.785  19.366  1.6870   .9920  2.1350   .0120 -999.25 -999.25 -999.25 -999.25 -999.25  1.6000   .2711 -999.25 -999.25
   169.621  54.115  19.733   .4000   .7110  1.0210 -999.25 -999.25 -18.918  55.112  20.140  1.6390  1.0910  2.0090   .0050 -999.25 -999.25 -999.25 -999.25 -999.25  1.6000   .2708 -999.25 -999.25
   169.774  51.723  19.228   .2030   .7100  1.0320 -999.25 -999.25 -18.506  52.672  19.912  1.5840   .9090  1.9580   .0010 -999.25 -999.25 -999.25 -999.25 -999.25  1.6000   .2699 -999.25 -999.25
   169.926  50.929  18.375   .2080   .7260  1.0520 -999.25 -999.25 -19.191  51.243  19.110  1.5720   .7880  2.0750   .0040 -999.25 -999.25 -999.25 -999.25 -999.25  1.6000   .2684 -999.25 -999.25
   170.078  51.907  18.562   .2530   .7270  1.0320 -999.25 -999.25 -19.267  52.945  18.954  1.5890   .6740  2.1480   .0050 -999.25 -999.25 -999.25 -999.25 -999.25  5.0000   .2662 -999.25 -999.25
   170.231  53.176  18.431   .3590   .7360  1.0640 -999.25 -999.25 -19.730  57.959  18.968  1.6190   .7050  2.1450   .0040 -999.25 -999.25 -999.25 -999.25 -999.25  5.0000   .2634 -999.25 -999.25
   170.383  54.214  18.862   .3090   .7420  1.0950 -999.25 -999.25 -20.440  60.093  18.723  1.6460   .7730  2.1280   .0070 -999.25 -999.25 -999.25 -999.25 -999.25  5.0000   .2599 -999.25 -999.25
   170.536  55.092  18.969   .3140   .7390  1.0990 -999.25 -999.25 -19.521  59.586  19.966  1.6780   .8450  2.0430   .0040 -999.25 -999.25 -999.25 -999.25 -999.25  5.0000   .2558 -999.25 -999.25
   170.688  54.696  17.481   .5690   .7480  1.1050 -999.25 -999.25 -19.882  56.583  19.633  1.7100   .8010  1.9930  -.0040 -999.25 -999.25 -999.25 -999.25 -999.25  5.0000   .2510 -999.25 -999.25
   170.840  54.332  16.661   .5180   .7710  1.1480 -999.25 -999.25 -19.863  55.753  17.936  1.7130   .6760  2.0170  -.0100 -999.25 -999.25 -999.25 -999.25 -999.25  5.0000   .2456 -999.25 -999.25
   170.993  55.054  15.575   .2850   .8070  1.2140 -999.25 -999.25 -20.042  55.784  17.221  1.6900   .5880  2.1890  -.0150 -999.25 -999.25 -999.25 -999.25 -999.25  5.0000   .2402 -999.25 -999.25
   171.145  56.932  13.872   .2710   .8560  1.2920 -999.25 -999.25 -19.307  54.840  15.736  1.6740   .5160  2.2880  -.0140 -999.25 -999.25 -999.25 -999.25 -999.25  2.9000   .2348 -999.25 -999.25
   171.298  58.705  12.944   .4290   .9180  1.3760 -999.25 -999.25 -18.505  55.553  13.639  1.6780   .5280  2.1770  -.0110 -999.25 -999.25 -999.25 -999.25 -999.25  2.9000   .2295 -999.25 -999.25
   171.450  59.663  13.064   .5540   .9460  1.4020 -999.25 -999.25 -17.598  57.740  13.267  1.6840   .5300  2.0590  -.0080 -999.25 -999.25 -999.25 -999.25 -999.25  2.9000   .2241 -999.25 -999.25
   171.602  60.557  13.148   .6380   .9420  1.3950 -999.25 -999.25 -17.268  61.818  13.336  1.6840   .4910  2.1220  -.0070 -999.25 -999.25 -999.25 -999.25 -999.25  2.9000   .2187 -999.25 -999.25
   171.755  63.117  13.229   .7240   .9280  1.3880 -999.25 -999.25 -16.547  66.550  13.356  1.6870   .4370  2.2620  -.0090 -999.25 -999.25 -999.25 -999.25 -999.25  2.9000   .2133 -999.25 -999.25
   171.907  64.429  13.226   .7950   .9160  1.3640 -999.25 -999.25 -15.938  71.087  13.363  1.7030   .4280  2.3850  -.0160 -999.25 -999.25 -999.25 -999.25 -999.25  2.9000   .2079 -999.25 -999.25
   172.060  67.127  13.158   .7960   .9090  1.3520 -999.25 -999.25 -16.255  74.484  13.333  1.7350   .4560  2.4450  -.0170 -999.25 -999.25 -999.25 -999.25 -999.25  5.1000   .2025 -999.25 -999.25
   172.212  69.579  13.086   .8080   .9180  1.3620 -999.25 -999.25 -16.499  75.915  13.244  1.7690   .5010  2.4860  -.0130 -999.25 -999.25 -999.25 -999.25 -999.25  5.1000   .1971 -999.25 -999.25
   172.364  70.227  12.999   .8620   .9290  1.3740 -999.25 -999.25 -15.685  73.100  13.109  1.7900   .5230  2.5190  -.0080 -999.25 -999.25 -999.25 -999.25 -999.25  5.1000   .1917 -999.25 -999.25
   172.517  65.562  12.959   .8640   .9250  1.3690 -999.25 -999.25 -14.633  65.469  13.078  1.7820   .5080  2.5040  -.0040 -999.25 -999.25 -999.25 -999.25 -999.25  5.1000   .1863 -999.25 -999.25
   172.669  56.688  12.924   .7350   .9220  1.3630 -999.25 -999.25 -13.321  54.610  13.078  1.7440   .4880  2.4900  -.0030 -999.25 -999.25 -999.25 -999.25 -999.25  5.1000   .1809 -999.25 -999.25
