~Version Information
VERS.                     2.0: CWLS log ASCII Standard Version 2.00
WRAP.                      NO: One line per depth step
~Well Information Block
#MNEM.UNIT                               Data Type  Information
#---------                               ---------  -----------
STRT.M                                       .0000:
STOP.M                                    632.0028:
STEP.M                                       .1524:
NULL.                 -999.25                     :
COMP.     DORAL RESOURCES NL                      :COMPANY            
WELL.     TUBRIDGI - 10                           :WELL               
FLD .                                             :FIELD              
CTRY.                                             :COUNTRY            
STAT.                                             :STATE              
LOC .                                             :LOCATION           
UWI .                                             :UNIQUE WELL ID     
SRVC.                                             :Service company    
DATE.                                             :LOG DATE           
~Curve Information
#MNEM    .UNIT           API CODE  Curve Description
#-------------           --------  -----------------
DEPT    .M                       :   1 DEPTH
GR      .GAPI                    :   2
CALS    .IN                      :   3
MSFL    .OHMM                    :   4
LLS     .OHMM                    :   5
LLD     .OHMM                    :   6
DTLN    .US/F                    :   7
DTLF    .US/F                    :   8
SP      .MV                      :   9
GR      .                        :  10
CALI    .                        :  11
RHOB    .                        :  12
TNPH    .                        :  13
PEF     .                        :  14
DRHO    .                        :  15
HGR     .                        :  16
HRHO    .                        :  17
HTNP    .                        :  18
HPEF    .                        :  19
HDRH    .                        :  20
ROP     .min/                    :  21
TG      .%                       :  22
GR      .                        :  23
NPHI    .                        :  24
~A
# ...
   377.647  61.182  12.625  1.0090   .9690  1.1970  162.97  162.13 -16.930  66.578  12.387  1.9500   .4500  2.5510  -.0060 -999.25 -999.25 -999.25 -999.25 -999.25   .7000  2.0572 -999.25 -999.25
   377.800  54.317  12.625   .6360   .8990  1.1110  161.97  161.91 -17.087  61.629  12.383  1.9300   .4150  2.5030  -.0110 -999.25 -999.25 -999.25 -999.25 -999.25   .7000  2.0686 -999.25 -999.25
   377.952  48.367  12.625   .4040   .8240  1.0260  160.35  159.92 -16.738  51.798  12.383  1.9240   .4590  2.7890  -.0100 -999.25 -999.25 -999.25 -999.25 -999.25   .7000  2.0800 -999.25 -999.25
   378.104  42.909  12.619   .4090   .8010  1.0010  159.14  159.50 -16.849  44.721  12.383  1.9620   .4770  3.4300  -.0040 -999.25 -999.25 -999.25 -999.25 -999.25   .9000  2.0913 -999.25 -999.25
   378.257  39.782  12.571   .4100   .7880   .9850  160.00  160.09 -17.442  38.345  12.377  2.0230   .5230  3.7060   .0070 -999.25 -999.25 -999.25 -999.25 -999.25   .9000  2.1027 -999.25 -999.25
   378.409  36.220  12.537   .3630   .7550   .9640  161.06  160.81 -17.253  39.714  12.277  2.0490   .5690  3.3070   .0130 -999.25 -999.25 -999.25 -999.25 -999.25   .9000  2.1141 -999.25 -999.25
   378.562  36.104  12.520   .3240   .7240   .9180  161.60  161.49 -16.142  42.902  12.265  2.0160   .5620  2.7000   .0130 -999.25 -999.25 -999.25 -999.25 -999.25   .9000  2.1255 -999.25 -999.25
   378.714  37.112  12.492   .3030   .7080   .8980  173.38  160.22 -15.407  44.509  12.250  1.9500   .5460  2.3010   .0100 -999.25 -999.25 -999.25 -999.25 -999.25   .9000  2.1369 -999.25 -999.25
   378.866  39.191  12.473   .2920   .6930   .8680  175.68  160.32 -13.619  42.872  12.242  1.8940   .4970  2.1400   .0060 -999.25 -999.25 -999.25 -999.25 -999.25   .9000  2.1483 -999.25 -999.25
   379.019  40.611  12.481   .2850   .6640   .8400  173.97  162.50 -14.214  41.584  12.248  1.8600   .4710  2.0600   .0040 -999.25 -999.25 -999.25 -999.25 -999.25   .9000  2.1597 -999.25 -999.25
   379.171  40.379  12.473   .2870   .6780   .8510  169.14  160.15 -13.708  41.753  12.244  1.8490   .4420  2.0210   .0050 -999.25 -999.25 -999.25 -999.25 -999.25   .1000  2.1711 -999.25 -999.25
   379.324  41.620  12.487   .2750   .7230   .9070  165.19  161.71 -14.182  43.513  12.266  1.8520   .4430  2.0170   .0080 -999.25 -999.25 -999.25 -999.25 -999.25   .1000  2.1814 -999.25 -999.25
   379.476  42.874  12.534   .2790   .7600   .9690  164.10  166.30 -13.861  44.890  12.273  1.8630   .4720  2.0790   .0070 -999.25 -999.25 -999.25 -999.25 -999.25   .1000  2.1907 -999.25 -999.25
   379.628  46.148  12.559   .3320   .7840  1.0200  165.61  168.05 -14.401  49.163  12.357  1.8760   .5300  2.0900   .0020 -999.25 -999.25 -999.25 -999.25 -999.25   .1000  2.1990 -999.25 -999.25
   379.781  48.148  12.508   .3680   .7910  1.0190  158.23  166.23 -15.136  49.917  12.383  1.8850   .5810  2.0830  -.0080 -999.25 -999.25 -999.25 -999.25 -999.25   .1000  2.2063 -999.25 -999.25
   379.933  49.050  12.474   .3320   .7830  1.0000  157.76  164.28 -16.034  50.411  12.383  1.8770   .5340  2.0760  -.0150 -999.25 -999.25 -999.25 -999.25 -999.25   .1000  2.2125 -999.25 -999.25
   380.086  49.609  12.517   .3370   .7410   .9690  159.31  162.42 -15.245  48.718  12.383  1.8670   .5060  2.0820  -.0190 -999.25 -999.25 -999.25 -999.25 -999.25  1.0000  2.2176 -999.25 -999.25
   380.238  49.572  12.684   .3120   .7300   .9500  158.27  161.03 -14.979  47.257  12.438  1.8450   .4940  2.0520  -.0210 -999.25 -999.25 -999.25 -999.25 -999.25  1.0000  2.2218 -999.25 -999.25
   380.390  49.088  12.807   .3820   .7390   .9310  152.63  156.46 -14.271  47.566  12.588  1.8590   .5160  2.0540  -.0190 -999.25 -999.25 -999.25 -999.25 -999.25  1.0000  2.2249 -999.25 -999.25
   380.543  47.534  12.828   .4360   .7070   .9060  147.24  153.03 -14.461  48.733  12.681  1.8860   .4970  2.1200  -.0170 -999.25 -999.25 -999.25 -999.25 -999.25  1.0000  2.2270 -999.25 -999.25
   380.695  45.441  12.921   .4150   .7150   .9290  146.12  150.97 -14.594  48.727  12.776  1.9170   .4660  2.1970  -.0170 -999.25 -999.25 -999.25 -999.25 -999.25  1.0000  2.2280 -999.25 -999.25
   380.848  46.723  12.920   .3420   .7660  1.0100  149.14  151.48 -13.590  45.959  12.797  1.9290   .4900  2.2550  -.0150 -999.25 -999.25 -999.25 -999.25 -999.25  1.0000  2.2280 -999.25 -999.25
   381.000  47.508  12.864   .3370   .7770  1.0210  152.15  153.92 -13.411  45.457  12.797  1.9420   .5400  2.3580  -.0080 -999.25 -999.25 -999.25 -999.25 -999.25  1.0000  2.2280 -999.25 -999.25
   381.152  46.434  12.751   .4110   .7560  1.0060  154.07  155.49 -14.331  47.896  12.797  1.9560   .6110  2.3370  -.0080 -999.25 -999.25 -999.25 -999.25 -999.25   .7000  2.2280 -999.25 -999.25
   381.305  42.380  12.727   .4230   .7240   .9540  156.26  158.90 -13.787  49.558  12.683  1.9640   .5630  2.2580  -.0040 -999.25 -999.25 -999.25 -999.25 -999.25   .7000  2.2280 -999.25 -999.25
   381.457  37.375  12.784   .3100   .6790   .8860  159.23  162.48 -12.591  46.960  12.389  1.9260   .5670  2.1210  -.0090 -999.25 -999.25 -999.25 -999.25 -999.25   .7000  2.2280 -999.25 -999.25
   381.610  36.182  12.822   .2570   .6410   .8360  161.36  161.41 -12.558  43.549  12.175  1.8860   .6040  2.1430  -.0130 -999.25 -999.25 -999.25 -999.25 -999.25   .7000  2.2280 -999.25 -999.25
   381.762  35.482  12.899   .2560   .6410   .8420  160.47  158.18 -12.370  41.060  12.134  1.8570   .6830  2.1330  -.0200 -999.25 -999.25 -999.25 -999.25 -999.25   .7000  2.2280 -999.25 -999.25
   381.914  34.982  12.966   .2620   .6380   .8450  157.72  153.92 -13.657  40.682  12.152  1.8530   .5650  2.1520  -.0210 -999.25 -999.25 -999.25 -999.25 -999.25   .7000  2.2280 -999.25 -999.25
   382.067  34.543  12.678   .2380   .6180   .8130  152.88  150.06 -13.003  39.000  12.124  1.8470   .4810  2.1590  -.0230 -999.25 -999.25 -999.25 -999.25 -999.25   .5000  2.2280 -999.25 -999.25
   382.219  35.486  12.454   .2480   .6180   .8090  148.58  147.88 -11.202  37.639  12.163  1.8430   .4350  2.1940  -.0250 -999.25 -999.25 -999.25 -999.25 -999.25   .5000  2.2280 -999.25 -999.25
   382.372  36.500  12.402   .2750   .6300   .8290  145.89  147.76 -9.8740  35.472  12.277  1.8490   .4600  2.2860  -.0290 -999.25 -999.25 -999.25 -999.25 -999.25   .5000  2.2280 -999.25 -999.25
   382.524  34.839  12.398   .2690   .6450   .8520  146.60  151.50 -10.897  37.569  12.369  1.8700   .5050  2.3320  -.0270 -999.25 -999.25 -999.25 -999.25 -999.25   .5000  2.2280 -999.25 -999.25
   382.676  32.437  12.458   .2690   .6680   .8780  150.02  160.97 -9.5440  37.026  12.350  1.8890   .6320  2.3000  -.0160 -999.25 -999.25 -999.25 -999.25 -999.25   .5000  2.2280 -999.25 -999.25
   382.829  30.136  12.595   .2630   .6850   .8790  153.66  163.62 -10.420  35.568  12.377  1.8720   .5980  2.1140  -.0120 -999.25 -999.25 -999.25 -999.25 -999.25   .5000  2.2280 -999.25 -999.25
   382.981  29.383  12.744   .2560   .6630   .8600  154.12  164.31 -10.385  32.834  12.490  1.8400   .5780  2.0040  -.0090 -999.25 -999.25 -999.25 -999.25 -999.25   .5000  2.2280 -999.25 -999.25
   383.134  30.627  12.746   .2370   .6360   .8440  154.10  164.31 -9.6200  31.494  12.709  1.8150   .5470  1.9420  -.0060 -999.25 -999.25 -999.25 -999.25 -999.25  1.2000  2.2280 -999.25 -999.25
   383.286  30.426  12.729   .2170   .6250   .8230  155.48  164.53 -10.140  31.963  12.789  1.7990   .4990  1.9550  -.0060 -999.25 -999.25 -999.25 -999.25 -999.25  1.2000  2.2280 -999.25 -999.25
   383.438  30.792  12.666   .2180   .6210   .8190  157.61  165.93 -9.3290  30.817  12.770  1.7940   .4780  1.9240  -.0100 -999.25 -999.25 -999.25 -999.25 -999.25  1.2000  2.2280 -999.25 -999.25
   383.591  29.364  12.493   .2360   .6120   .8020  162.43  166.77 -9.8540  32.501  12.657  1.7970   .4240  1.9100  -.0120 -999.25 -999.25 -999.25 -999.25 -999.25  1.2000  2.2280 -999.25 -999.25
   383.743  32.377  12.400   .2620   .6000   .7840  165.37  165.44 -9.8100  33.136  12.525  1.8070   .4440  1.8720  -.0090 -999.25 -999.25 -999.25 -999.25 -999.25  1.2000  2.2280 -999.25 -999.25
   383.896  32.707  12.391   .2500   .6040   .7700  165.88  164.24 -10.393  33.489  12.398  1.8150   .4580  1.8340  -.0050 -999.25 -999.25 -999.25 -999.25 -999.25  1.2000  2.2280 -999.25 -999.25
