~Version Information
VERS.                     2.0: CWLS log ASCII Standard Version 2.00
WRAP.                      NO: One line per depth step
~Well Information Block
#MNEM.UNIT                               Data Type  Information
#---------                               ---------  -----------
STRT.M                                       .0000:
STOP.M                                    632.0028:
STEP.M                                       .1524:
NULL.                 -999.25                     :
COMP.     DORAL RESOURCES NL                      :COMPANY            
WELL.     TUBRIDGI - 10                           :WELL               
FLD .                                             :FIELD              
CTRY.                                             :COUNTRY            
STAT.                                             :STATE              
LOC .                                             :LOCATION           
UWI .                                             :UNIQUE WELL ID     
SRVC.                                             :Service company    
DATE.                                             :LOG DATE           
~Curve Information
#MNEM    .UNIT           API CODE  Curve Description
#-------------           --------  -----------------
DEPT    .M                       :   1 DEPTH
GR      .GAPI                    :   2
CALS    .IN                      :   3
MSFL    .OHMM                    :   4
LLS     .OHMM                    :   5
LLD     .OHMM                    :   6
DTLN    .US/F                    :   7
DTLF    .US/F                    :   8
SP      .MV                      :   9
GR      .                        :  10
CALI    .                        :  11
RHOB    .                        :  12
TNPH    .                        :  13
PEF     .                        :  14
DRHO    .                        :  15
HGR     .                        :  16
HRHO    .                        :  17
HTNP    .                        :  18
HPEF    .                        :  19
HDRH    .                        :  20
ROP     .min/                    :  21
TG      .%                       :  22
GR      .                        :  23
NPHI    .                        :  24
~A
# ...
   620.878  21.563  2.1540  1.0250   .5860   .8200  109.00  114.40 -10.750  38.250  12.789  2.2160   .2860  1.6630   .0440 -999.25 -999.25 -999.25 -999.25 -999.25  4.0000   .0546 -999.25 -999.25
   621.030  21.563  2.1540  1.0250   .5820   .8190  109.00  114.40 -10.750  38.250  12.774  2.1920   .2730  1.6790   .0190 -999.25 -999.25 -999.25 -999.25 -999.25  6.0000   .0599 -999.25 -999.25
   621.182  21.563  2.1540  1.0250   .5760   .8130  109.00  114.40 -10.750  38.250  12.797  2.1970   .2690  1.7080   .0100 -999.25 -999.25 -999.25 -999.25 -999.25  6.0000   .0652 -999.25 -999.25
   621.335  21.563  2.1540  1.0250   .5950   .8130  109.00  114.40 -10.750  38.250  12.797  2.2040   .2780  1.7380   .0090 -999.25 -999.25 -999.25 -999.25 -999.25  6.0000   .0704 -999.25 -999.25
   621.487  21.563  2.1540  1.0250   .5910   .8200  109.00  114.40 -10.750  38.250  12.557  2.2110   .2550  1.7290   .0090 -999.25 -999.25 -999.25 -999.25 -999.25  6.0000   .0757 -999.25 -999.25
   621.640  21.563  2.1540  1.0250   .5620   .7930  109.00  114.40 -10.750  38.250  12.516  2.2040   .2700  1.7860   .0040 -999.25 -999.25 -999.25 -999.25 -999.25  6.0000   .0810 -999.25 -999.25
   621.792  21.563  2.1540  1.0250   .5610   .7780  109.00  114.40 -10.750  38.250  12.430  2.2010   .2370  1.8360   .0070 -999.25 -999.25 -999.25 -999.25 -999.25  6.0000   .0862 -999.25 -999.25
   621.944  21.563  2.1540  1.0250   .5820   .7900  109.00  114.40 -10.750  38.250  12.328  2.1820   .2390  1.8530   .0090 -999.25 -999.25 -999.25 -999.25 -999.25  6.0000   .0915 -999.25 -999.25
   622.097  21.563  2.1540  1.0250   .6110   .8150  109.00  114.40 -10.750  38.250  12.187  2.1700   .2260  1.7800   .0080 -999.25 -999.25 -999.25 -999.25 -999.25  13.000   .0968 -999.25 -999.25
   622.249  21.563  2.1540  1.0250   .6460   .8730  109.00  114.40 -10.750  38.250  12.109  2.1660   .2300  1.7090   .0060 -999.25 -999.25 -999.25 -999.25 -999.25  13.000   .1020 -999.25 -999.25
   622.402  21.563  2.1540  1.0250   .6880   .9300  109.00  114.40 -10.750  38.250  12.111  2.1820   .2280  1.6760   .0080 -999.25 -999.25 -999.25 -999.25 -999.25  13.000   .1073 -999.25 -999.25
   622.554  21.563  2.1540  1.0250   .6830   .9190  109.00  114.40 -10.750  38.250  12.205  2.1870   .2280  1.7720   .0100 -999.25 -999.25 -999.25 -999.25 -999.25  13.000   .1126 -999.25 -999.25
   622.706  21.563  2.1540  1.0250   .6630   .8790  109.00  114.40 -10.750  38.250  12.300  2.1870   .2280  1.7890   .0070 -999.25 -999.25 -999.25 -999.25 -999.25  13.000   .1178 -999.25 -999.25
   622.859  21.563  2.1540  1.0250   .6500   .8420  109.00  114.40 -10.750  38.250  12.424  2.1750   .2270  1.8390   .0040 -999.25 -999.25 -999.25 -999.25 -999.25  13.000   .1231 -999.25 -999.25
   623.011  21.563  2.1540  1.0250   .6310   .8160  109.00  114.40 -10.750  38.250  12.508  2.1710   .2270  1.8370   .0030 -999.25 -999.25 -999.25 -999.25 -999.25  13.000   .1284 -999.25 -999.25
   623.164  21.563  2.1540  1.0250   .6260   .8220  109.00  114.40 -10.750  38.250  12.526  2.1790   .2270  1.9220   .0090 -999.25 -999.25 -999.25 -999.25 -999.25  3.2000   .1337 -999.25 -999.25
   623.316  21.563  2.1540  1.0250   .6640   .8460  109.00  114.40 -10.750  38.250  12.606  2.2010   .2260  1.9350   .0100 -999.25 -999.25 -999.25 -999.25 -999.25  3.2000   .1368 -999.25 -999.25
   623.468  21.563  2.1540  1.0250   .6660   .8700  109.00  114.40 -10.750  38.250  12.523  2.2150   .2270  1.9430   .0200 -999.25 -999.25 -999.25 -999.25 -999.25  3.2000   .1377 -999.25 -999.25
   623.621  21.563  2.1540  1.0250   .6890   .8800  109.00  114.40 -10.750  38.250  12.346  2.2330   .2280  1.9420   .0510 -999.25 -999.25 -999.25 -999.25 -999.25  3.2000   .1365 -999.25 -999.25
   623.773  21.563  2.1540  1.0250   .6730   .8660  109.00  114.40 -10.750  38.250  12.245  2.2290   .2280  2.0300   .0660 -999.25 -999.25 -999.25 -999.25 -999.25  3.2000   .1331 -999.25 -999.25
   623.926  21.563  2.1540  1.0250   .6800   .8620  109.00  114.40 -10.750  38.250  12.301  2.2440   .2280  2.0680   .0610 -999.25 -999.25 -999.25 -999.25 -999.25  3.2000   .1275 -999.25 -999.25
   624.078  21.563  2.1540  1.0250   .7120   .9010  109.00  114.40 -10.750  38.250  12.361  2.2940   .2280  1.9940   .0750 -999.25 -999.25 -999.25 -999.25 -999.25  9.6000   .1198 -999.25 -999.25
   624.230  21.563  2.1540  1.0250   .8300  1.0570  109.00  114.40 -10.750  38.250  12.240  2.3430   .2280  1.9090   .0920 -999.25 -999.25 -999.25 -999.25 -999.25  9.6000   .1099 -999.25 -999.25
   624.383  21.563  2.1540  1.0250   .9100  1.2000  109.00  114.40 -10.750  38.250  11.976  2.3540   .2280  2.0640   .0880 -999.25 -999.25 -999.25 -999.25 -999.25  9.6000   .0994 -999.25 -999.25
   624.535  21.563  2.1540  1.0250   .9880  1.2710  109.00  114.40 -10.750  38.250  11.989  2.3280   .2280  2.3000   .0410 -999.25 -999.25 -999.25 -999.25 -999.25  9.6000   .0885 -999.25 -999.25
   624.688  21.563  2.1540  1.0250  1.0650  1.3380  109.00  114.40 -10.750  38.250  12.385  2.2570   .2280  2.2050   .0340 -999.25 -999.25 -999.25 -999.25 -999.25  9.6000   .0771 -999.25 -999.25
   624.840  21.563  2.1540  1.0250   .9850  1.2140  109.00  114.40 -10.750  38.250  12.673  2.1650   .2260  2.1000   .0100 -999.25 -999.25 -999.25 -999.25 -999.25  9.6000   .0652 -999.25 -999.25
   624.992  21.563  2.1540  1.0250   .9980  1.2430  109.00  114.40 -10.750  38.250  12.315  2.1210   .2280  1.9990  -.0010 -999.25 -999.25 -999.25 -999.25 -999.25  9.6000   .0549 -999.25 -999.25
   625.145  21.563  2.1540  1.0250  1.1860  1.4610  109.00  114.40 -10.749  38.250  12.263  2.1630   .2280  2.0580   .0010 -999.25 -999.25 -999.25 -999.25 -999.25  1.0000   .0463 -999.25 -999.25
   625.297  21.563  2.1540  1.0250  1.3360  1.6340  109.00  114.40 -10.742  38.250  12.326  2.2430   .2280  2.0250   .0330 -999.25 -999.25 -999.25 -999.25 -999.25  1.0000   .0394 -999.25 -999.25
   625.450  21.563  2.1540  1.0250  1.3230  1.6290  109.00  114.40 -10.742  38.250  12.382  2.2670   .2280  1.9260   .0430 -999.25 -999.25 -999.25 -999.25 -999.25  1.0000   .0341 -999.25 -999.25
   625.602  21.563  2.1540  1.0250  1.2630  1.5480  109.00  114.40 -10.742  38.250  12.386  2.3090   .2280  1.9080   .0750 -999.25 -999.25 -999.25 -999.25 -999.25  1.0000   .0305 -999.25 -999.25
   625.754  21.563  2.1540  1.0250  1.1870  1.4370  109.00  114.40 -10.742  38.250  12.489  2.3180   .2270  1.8700   .0810 -999.25 -999.25 -999.25 -999.25 -999.25  1.0000   .0285 -999.25 -999.25
   625.907  21.563  2.1540  1.0250  1.2020  1.4510  109.00  114.40 -10.742  38.250  12.545  2.3030   .2270  1.8870   .0710 -999.25 -999.25 -999.25 -999.25 -999.25  1.0000   .0282 -999.25 -999.25
   626.059  21.563  2.1540  1.0250  1.2130  1.4940  109.00  114.40 -10.741  38.250  12.655  2.2920   .2260  1.9370   .0640 -999.25 -999.25 -999.25 -999.25 -999.25   .7000   .0279 -999.25 -999.25
   626.212  21.563  2.1540  1.0250  1.2200  1.4900  109.00  114.40 -10.734  38.250  12.577  2.2740   .2270  1.9630   .0500 -999.25 -999.25 -999.25 -999.25 -999.25   .7000   .0276 -999.25 -999.25
   626.364  21.563  2.1540  1.0250  1.2270  1.4890  109.00  109.76 -10.734  38.250  12.576  2.2590   .2270  2.0440   .0350 -999.25 -999.25 -999.25 -999.25 -999.25   .7000   .0273 -999.25 -999.25
   626.516  21.563  2.1540  1.0250  1.2230  1.4880  95.710 -999.25 -10.733  38.250  12.617  2.2540   .2260  1.9880   .0310 -999.25 -999.25 -999.25 -999.25 -999.25   .7000   .0270 -999.25 -999.25
   626.669 -999.25 -999.25 -999.25 -999.25 -999.25 -999.25 -999.25 -999.25  38.250  12.608  2.2500   .2260  1.9740   .0350 -999.25 -999.25 -999.25 -999.25 -999.25   .7000   .0267 -999.25 -999.25
   626.821 -999.25 -999.25 -999.25 -999.25 -999.25 -999.25 -999.25 -999.25  38.250  12.551  2.2640   .2270  1.9050   .0410 -999.25 -999.25 -999.25 -999.25 -999.25   .7000   .0264 -999.25 -999.25
   626.974 -999.25 -999.25 -999.25 -999.25 -999.25 -999.25 -999.25 -999.25  38.250  12.066  2.2640   .2270  1.8470   .0450 -999.25 -999.25 -999.25 -999.25 -999.25   .7000   .0261 -999.25 -999.25
   627.126 -999.25 -999.25 -999.25 -999.25 -999.25 -999.25 -999.25 -999.25  38.250 -999.25  2.2350   .2280  1.7940   .0490 -999.25 -999.25 -999.25 -999.25 -999.25  1.0000   .0258 -999.25 -999.25
