~Version Information
VERS.                     2.0: CWLS log ASCII Standard Version 2.00
WRAP.                      NO: One line per depth step
~Well Information Block
#MNEM.UNIT                               Data Type  Information
#---------                               ---------  -----------
STRT.M                                       .0000:
STOP.M                                    632.0028:
STEP.M                                       .1524:
NULL.                 -999.25                     :
COMP.     DORAL RESOURCES NL                      :COMPANY            
WELL.     TUBRIDGI - 10                           :WELL               
FLD .                                             :FIELD              
CTRY.                                             :COUNTRY            
STAT.                                             :STATE              
LOC .                                             :LOCATION           
UWI .                                             :UNIQUE WELL ID     
SRVC.                                             :Service company    
DATE.                                             :LOG DATE           
~Curve Information
#MNEM    .UNIT           API CODE  Curve Description
#-------------           --------  -----------------
DEPT    .M                       :   1 DEPTH
GR      .GAPI                    :   2
CALS    .IN                      :   3
MSFL    .OHMM                    :   4
LLS     .OHMM                    :   5
LLD     .OHMM                    :   6
DTLN    .US/F                    :   7
DTLF    .US/F                    :   8
SP      .MV                      :   9
GR      .                        :  10
CALI    .                        :  11
RHOB    .                        :  12
TNPH    .                        :  13
PEF     .                        :  14
DRHO    .                        :  15
HGR     .                        :  16
HRHO    .                        :  17
HTNP    .                        :  18
HPEF    .                        :  19
HDRH    .                        :  20
ROP     .min/                    :  21
TG      .%                       :  22
GR      .                        :  23
NPHI    .                        :  24
~A
# ...
   588.874  24.539  12.464   .3530   .6530   .8940  116.03  112.30 -4.3670  25.820  12.207  2.2210   .2660  2.0780   .0180 -999.25 -999.25 -999.25 -999.25 -999.25   .5000   .1484 -999.25 -999.25
   589.026  26.497  12.495   .3490   .6460   .8830  119.41  112.68 -4.0040  28.067  12.271  2.2050   .2770  2.0510   .0050 -999.25 -999.25 -999.25 -999.25 -999.25  1.0000   .1480 -999.25 -999.25
   589.178  28.910  12.341   .3380   .6660   .9010  117.98  113.84 -4.7260  34.148  12.260  2.1870   .2760  1.9630   .0010 -999.25 -999.25 -999.25 -999.25 -999.25  1.0000   .1477 -999.25 -999.25
   589.331  35.650  12.362   .3210   .7130   .9670  113.28  113.76 -4.3380  42.571  12.297  2.1860   .2730  1.8630   .0020 -999.25 -999.25 -999.25 -999.25 -999.25  1.0000   .1474 -999.25 -999.25
   589.483  47.341  12.570   .3580   .8020  1.0950  113.68  111.91 -5.0990  54.364  12.438  2.1960   .2760  1.8240   .0050 -999.25 -999.25 -999.25 -999.25 -999.25  1.0000   .1471 -999.25 -999.25
   589.636  58.023  12.752   .4220   .9080  1.2420  113.53  110.30 -4.8070  60.381  12.551  2.2330   .2690  1.8840   .0070 -999.25 -999.25 -999.25 -999.25 -999.25  1.0000   .1469 -999.25 -999.25
   589.788  63.994  12.680   .5440  1.0040  1.3630  112.70  109.20 -4.9380  65.752  12.468  2.2510   .2730  1.9520   .0180 -999.25 -999.25 -999.25 -999.25 -999.25  1.0000   .1466 -999.25 -999.25
   589.940  66.558  12.448   .4540  1.0820  1.4550  109.93  107.26 -5.2900  70.343  12.170  2.2620   .2690  2.0530   .0260 -999.25 -999.25 -999.25 -999.25 -999.25  1.0000   .1465 -999.25 -999.25
   590.093  71.549  12.380   .4590  1.1000  1.4750  107.52  105.20 -5.1000  79.829  12.154  2.2660   .2900  2.1520   .0320 -999.25 -999.25 -999.25 -999.25 -999.25  1.0000   .1463 -999.25 -999.25
   590.245  73.321  12.337   .4300  1.0150  1.3780  107.23  104.75 -4.9650  80.567  12.109  2.3030   .2940  2.2400   .0450 -999.25 -999.25 -999.25 -999.25 -999.25  1.0000   .1462 -999.25 -999.25
   590.398  69.512  12.335   .5350   .8910  1.2000  112.13  108.05 -5.0050  69.314  12.109  2.3130   .3160  2.2640   .0490 -999.25 -999.25 -999.25 -999.25 -999.25  1.0000   .1461 -999.25 -999.25
   590.550  57.898  12.292   .5680   .7800  1.0430  116.06  111.09 -4.9830  52.878  12.109  2.2800   .3160  2.1130   .0350 -999.25 -999.25 -999.25 -999.25 -999.25  1.0000   .1460 -999.25 -999.25
   590.702  47.275  12.300   .3920   .7120   .9410  116.12  112.58 -4.7570  44.722  12.127  2.2390   .3150  2.0170   .0250 -999.25 -999.25 -999.25 -999.25 -999.25  1.0000   .1460 -999.25 -999.25
   590.855  41.912  12.537   .3510   .7270   .9540  115.52  112.33 -4.5510  41.683  12.272  2.2210   .2880  1.9130   .0160 -999.25 -999.25 -999.25 -999.25 -999.25  1.0000   .1460 -999.25 -999.25
   591.007  42.998  13.213   .3720   .7850  1.0440  112.04  106.60 -4.6290  41.391  12.911  2.2300   .2590  1.9910   .0090 -999.25 -999.25 -999.25 -999.25 -999.25  1.0000   .1460 -999.25 -999.25
   591.160  42.779  13.854   .5200   .8750  1.1740  96.830  95.772 -4.4520  39.291  14.140  2.2500   .2670  2.1210   .0140 -999.25 -999.25 -999.25 -999.25 -999.25   .8000   .1460 -999.25 -999.25
   591.312  39.653  13.581   .6700   .9870  1.3160  96.070  93.707 -4.4730  38.229  13.575  2.2720   .2980  2.6170   .0240 -999.25 -999.25 -999.25 -999.25 -999.25   .8000   .1460 -999.25 -999.25
   591.464  35.321  12.487   .4970  1.0120  1.3310  95.710  92.424 -4.5150  35.717  12.368  2.3160   .3370  3.3000   .0280 -999.25 -999.25 -999.25 -999.25 -999.25   .8000   .1460 -999.25 -999.25
   591.617  33.706  12.601   .4080   .9880  1.2850  97.827  96.405 -3.7980  33.949  12.338  2.3750   .3720  2.6260   .0550 -999.25 -999.25 -999.25 -999.25 -999.25   .8000   .1460 -999.25 -999.25
   591.769  35.231  13.240   .4790   .8930  1.1340  105.74  106.49 -3.8000  35.564  12.734  2.2630   .4220  1.9470   .0620 -999.25 -999.25 -999.25 -999.25 -999.25   .8000   .1460 -999.25 -999.25
   591.922  35.440  15.571   .3250   .7610   .9530  115.60  115.17 -3.7920  36.333  14.709  1.8890   .4860  1.5960   .0150 -999.25 -999.25 -999.25 -999.25 -999.25   .8000   .1460 -999.25 -999.25
   592.074  35.986  17.440   .1570   .7030   .8690  125.55  121.73 -5.0630  37.846  17.330  1.6050   .5460  1.5220   .0000 -999.25 -999.25 -999.25 -999.25 -999.25  1.4000   .1460 -999.25 -999.25
   592.226  33.591  18.381   .1400   .7070   .8720  122.50  130.31 -5.5670  37.069  19.423  1.5380   .4830  1.5610   .0150 -999.25 -999.25 -999.25 -999.25 -999.25  1.4000   .1460 -999.25 -999.25
   592.379  32.337  17.287   .1540   .7350   .9230  121.45  138.47 -5.7080  36.873  18.325  1.5970   .5130  1.5660   .0330 -999.25 -999.25 -999.25 -999.25 -999.25  1.4000   .1460 -999.25 -999.25
   592.531  29.308  18.679   .2310   .7920  1.0030  123.01  135.20 -5.4840  33.853  17.490  1.7190   .5740  1.5330   .0440 -999.25 -999.25 -999.25 -999.25 -999.25  1.4000   .1460 -999.25 -999.25
   592.684  28.224  20.009   .2690   .8070  1.0130  137.65  133.42 -5.5520  33.770  18.478  1.7920   .7230  1.5630   .0550 -999.25 -999.25 -999.25 -999.25 -999.25  1.4000   .1460 -999.25 -999.25
   592.836  29.514  18.893   .2020   .7030   .8880  135.06  128.75 -5.1780  37.709  19.088  1.8660   .7560  1.5860   .0640 -999.25 -999.25 -999.25 -999.25 -999.25  1.4000   .1460 -999.25 -999.25
   592.988  34.287  18.574   .1580   .6090   .7590  126.32  121.31 -5.2500  46.477  20.104  1.8530   .6310  1.6390   .0490 -999.25 -999.25 -999.25 -999.25 -999.25  1.4000   .1460 -999.25 -999.25
   593.141  43.329  18.330   .1780   .6020   .7480  122.97  115.81 -5.1150  56.199  20.671  1.7490   .4440  1.7740   .0170 -999.25 -999.25 -999.25 -999.25 -999.25  2.1000   .1460 -999.25 -999.25
   593.293  57.074  17.278   .1900   .7000   .8870  117.79  108.99 -6.4350  69.618  18.406  1.7160   .4320  2.1210  -.0010 -999.25 -999.25 -999.25 -999.25 -999.25  2.1000   .1460 -999.25 -999.25
   593.446  72.899  13.743   .2640   .8810  1.1570  111.02  104.14 -7.2790  79.484  13.298  1.8470   .4210  2.8360  -.0050 -999.25 -999.25 -999.25 -999.25 -999.25  2.1000   .1460 -999.25 -999.25
   593.598  84.082  12.626   .8300  1.2510  1.6760  108.62  103.92 -7.5240  86.381  12.620  2.1480   .4110  3.3380   .0080 -999.25 -999.25 -999.25 -999.25 -999.25  2.1000   .1460 -999.25 -999.25
   593.750  87.750  12.549  1.8660  1.7330  2.2820  110.01  105.59 -9.0320  87.368  12.452  2.3880   .3780  3.0520   .0300 -999.25 -999.25 -999.25 -999.25 -999.25  2.1000   .1460 -999.25 -999.25
   593.903  86.385  12.555  1.9770  1.9670  2.5390  106.59  106.81 -10.257  86.063  12.398  2.4030   .3810  2.6800   .0350 -999.25 -999.25 -999.25 -999.25 -999.25  2.1000   .1460 -999.25 -999.25
   594.055  81.715  12.575  1.8310  1.9210  2.4840  106.47  107.35 -10.834  84.050  12.497  2.3850   .3830  2.4110   .0500 -999.25 -999.25 -999.25 -999.25 -999.25  1.4000   .1460 -999.25 -999.25
   594.208  77.904  12.630  1.8610  1.8900  2.4470  107.13  107.39 -10.715  79.973  12.535  2.3750   .3690  2.2970   .0630 -999.25 -999.25 -999.25 -999.25 -999.25  1.4000   .1460 -999.25 -999.25
   594.360  75.299  12.636  1.8090  1.9700  2.5480  107.79  107.04 -10.859  82.446  12.496  2.3770   .3500  2.1390   .0760 -999.25 -999.25 -999.25 -999.25 -999.25  1.4000   .1458 -999.25 -999.25
   594.512  73.531  12.641  1.6800  1.9840  2.5700  107.94  105.96 -10.541  83.250  12.448  2.3650   .3370  2.0400   .0600 -999.25 -999.25 -999.25 -999.25 -999.25  1.4000   .1455 -999.25 -999.25
   594.665  71.285  12.670  2.0580  1.8490  2.3960  106.86  104.26 -9.5460  81.167  12.398  2.3550   .3260  2.0100   .0370 -999.25 -999.25 -999.25 -999.25 -999.25  1.4000   .1451 -999.25 -999.25
   594.817  64.984  12.622  2.1800  1.6340  2.1020  104.36  100.94 -8.4170  72.400  12.365  2.3460   .3200  2.0920   .0140 -999.25 -999.25 -999.25 -999.25 -999.25  1.4000   .1444 -999.25 -999.25
   594.970  58.346  12.550  1.5920  1.4050  1.7890  103.51  98.955 -7.5750  63.686  12.274  2.3520   .3080  2.1630   .0080 -999.25 -999.25 -999.25 -999.25 -999.25  1.4000   .1436 -999.25 -999.25
   595.122  49.620  12.523  1.0630  1.2290  1.5520  96.782  100.28 -7.8880  57.006  12.284  2.3450   .3180  2.2710  -.0020 -999.25 -999.25 -999.25 -999.25 -999.25  1.4000   .1427 -999.25 -999.25
